state_name,received_message,timestamp,voltage,ambientTemperature,ambientPressure,pressureAlt,estCompensatedAccelX,estCompensatedAccelY,estCompensatedAccelZ,estAngularRateX,estAngularRateY,estAngularRateZ,magneticFieldX,magneticFieldY,magneticFieldZ,estOrientQuaternionW,estOrientQuaternionX,estOrientQuaternionY,estOrientQuaternionZ,gpsLatitude,gpsLongitude,gpsAltitude,current_altitude,vertical_velocity,vertical_acceleration,maximum_altitude,pitch,roll,yaw,maximum_velocity,landing_velocity,crew_survivability
S,No Message Received,682518.0,0.0,25.37352753,1029.75805664,-136.54336548,-0.0859375,-9.5625,0.265625,0.0,-0.00585938,0.00195312,20.625,-41.0,-8.0,0.5760498,0.59301758,0.40264893,0.39282227,35.17578125,-76.82834625,9.56000042,-0.19752502,0.0,9.56252606,0.62931824,0.0,0.0,0.0,0.0,0.0,0.0
S,No Message Received,682555.0,0.0,25.37352753,1029.75805664,-136.54336548,-0.046875,-9.5625,0.2265625,0.00390625,-0.00585938,0.0,20.625,-41.0,-8.0,0.5760498,0.59301758,0.40264893,0.39282227,0.0,0.0,0.0,-0.19752502,0.0,9.56117993,0.62931824,0.0,0.0,0.0,0.0,0.0,0.0
S,No Message Received,682586.0,0.0,25.37352753,1029.75805664,-136.54336548,-0.046875,-9.5625,0.2265625,0.00195312,-0.00195312,0.0,20.625,-41.0,-8.0,0.57611084,0.59307861,0.40264893,0.39282227,35.17578125,-76.82834625,9.5340004,-0.19752502,0.0,9.56116618,0.62931824,0.0,0.0,0.0,0.0,0.0,0.0
S,No Message Received,682615.0,0.0,25.37181854,1029.75793457,-136.54237366,-0.046875,-9.56640625,0.265625,0.00390625,0.00390625,0.0,21.4375,-40.9375,-6.875,0.57611084,0.59313965,0.40258789,0.39276123,0.0,0.0,0.0,-0.1965332,0.0,9.56687982,0.62931824,0.0,0.0,0.0,0.0,0.0,0.0
S,No Message Received,682656.0,0.0,25.37181854,1029.75793457,-136.54237366,-0.046875,-9.5234375,0.3046875,0.0,0.00195312,0.0,21.4375,-40.9375,-6.875,0.5760498,0.59313965,0.40264893,0.39276123,0.0,0.0,0.0,-0.1965332,0.0,9.52579948,0.62931824,0.0,0.0,0.0,0.0,0.0,0.0
S,No Message Received,682671.0,0.0,25.37181854,1029.75793457,-136.54237366,-0.0859375,-9.5625,0.265625,0.00390625,0.00195312,0.0,21.4375,-40.9375,-6.875,0.5760498,0.59313965,0.40264893,0.39276123,35.17578125,-76.82834625,9.60499954,-0.1965332,0.0,9.56245665,0.62931824,0.0,0.0,0.0,0.0,0.0,0.0
S,No Message Received,682703.0,0.0,25.37181854,1029.75793457,-136.54237366,-0.046875,-9.56640625,0.3046875,0.0,0.0,-0.00195312,21.4375,-40.9375,-6.875,0.5760498,0.59313965,0.40270996,0.39276123,0.0,0.0,0.0,-0.1965332,0.0,9.56869788,0.62931824,0.0,0.0,0.0,0.0,0.0,0.0
S,No Message Received,682718.0,0.0,25.37181854,1029.76049805,-136.56321716,0.03125,-9.5625,0.265625,-0.00195312,-0.00390625,-0.00390625,22.4375,-39.8125,-7.5625,0.5760498,0.59313965,0.40270996,0.3927002,35.17578125,-76.82834625,9.65999985,-0.21737671,0.0,9.56398464,0.62931824,0.0,0.0,0.0,0.0,0.0,0.0
S,No Message Received,682754.0,0.0,25.37181854,1029.76049805,-136.56321716,-0.0078125,-9.5625,0.265625,0.0,-0.0078125,-0.00585938,22.4375,-39.8125,-7.5625,0.57611084,0.59313965,0.40264893,0.39263916,0.0,0.0,0.0,-0.21737671,0.0,9.5634388,0.62931824,0.0,0.0,0.0,0.0,0.0,0.0
S,No Message Received,682767.0,0.0,25.37181854,1029.76049805,-136.56321716,0.03125,-9.5625,0.265625,-0.00390625,-0.00976562,-0.00195312,21.8125,-40.9375,-6.8125,0.57611084,0.59313965,0.40264893,0.39257812,35.17578125,-76.82834625,9.81400013,-0.21737671,0.0,9.56397038,0.62931824,0.0,0.0,0.0,0.0,0.0,0.0
S,No Message Received,682795.0,0.0,25.37181854,1029.76049805,-136.56321716,0.03125,-9.5234375,0.2265625,-0.00195312,-0.00390625,-0.00195312,21.8125,-40.9375,-6.8125,0.57617188,0.59320068,0.40258789,0.39257812,0.0,0.0,0.0,-0.21737671,0.0,9.52312549,0.62931824,0.0,0.0,0.0,0.0,0.0,0.0
S,No Message Received,682815.0,0.0,25.37466431,1029.76086426,-136.56619263,0.03125,-9.640625,0.2265625,-0.00195312,0.00195312,0.00390625,21.8125,-40.9375,-6.8125,0.57617188,0.59320068,0.40252686,0.39257812,35.17578125,-76.82834625,9.87199974,-0.22035217,0.0,9.64018971,0.62931824,0.0,0.0,0.0,0.0,0.0,0.0
S,No Message Received,682843.0,0.0,25.37466431,1029.76086426,-136.56619263,0.03125,-9.56640625,0.1875,0.0,0.0,0.00390625,21.8125,-40.9375,-6.8125,0.57617188,0.59313965,0.40258789,0.39257812,0.0,0.0,0.0,-0.22035217,0.0,9.56423797,0.62931824,0.0,0.0,0.0,0.0,0.0,0.0
S,No Message Received,682859.0,0.0,25.37466431,1029.76086426,-136.56619263,0.03125,-9.6015625,0.265625,0.00195312,0.00195312,0.0,21.75,-40.9375,-7.9375,0.57617188,0.59313965,0.40258789,0.39257812,35.17578125,-76.82834625,9.93900013,-0.22035217,0.0,9.60301064,0.62931824,0.0,0.0,0.0,0.0,0.0,0.0
S,No Message Received,682892.0,0.0,25.37466431,1029.76086426,-136.56619263,-0.0078125,-9.5234375,0.1875,0.0,0.0,0.0,21.75,-40.9375,-7.9375,0.57617188,0.59313965,0.40258789,0.39257812,0.0,0.0,0.0,-0.22035217,0.0,9.52079117,0.62931824,0.0,0.0,0.0,0.0,0.0,0.0
S,No Message Received,682912.0,0.0,25.37466431,1029.76123047,-136.56916809,-0.046875,-9.5625,0.2265625,0.0,0.0,0.0,21.75,-40.9375,-7.9375,0.57617188,0.59313965,0.40258789,0.39257812,35.17578125,-76.82834625,9.99600029,-0.22332764,0.0,9.56111929,0.62931824,0.0,0.0,0.0,0.0,0.0,0.0
S,No Message Received,682942.0,0.0,25.37466431,1029.76123047,-136.56916809,0.03125,-9.5625,0.3046875,0.0,0.0,0.0,21.75,-40.9375,-7.9375,0.57617188,0.59313965,0.40258789,0.39257812,0.0,0.0,0.0,-0.22332764,0.0,9.56582788,0.62931824,0.0,0.0,0.0,0.0,0.0,0.0
S,No Message Received,682964.0,0.0,25.37466431,1029.76123047,-136.56916809,0.03125,-9.52734375,0.3046875,0.0,0.0,-0.00195312,21.75,-40.9375,-7.9375,0.57617188,0.59313965,0.40258789,0.39257812,35.17578125,-76.82834625,10.02299976,-0.22332764,0.0,9.53070937,0.62931824,0.0,0.0,0.0,0.0,0.0,0.0
S,No Message Received,682994.0,0.0,25.37466431,1029.76123047,-136.56916809,-0.0078125,-9.52734375,0.3046875,0.0,0.00195312,0.00390625,21.75,-40.9375,-7.9375,0.57617188,0.59313965,0.40258789,0.39257812,0.0,0.0,0.0,-0.22332764,0.0,9.53020266,0.62931824,0.0,0.0,0.0,0.0,0.0,0.0
S,No Message Received,683012.0,0.0,25.37352753,1029.7611084,-136.56817627,-0.0078125,-9.5625,0.265625,0.0,0.0078125,0.0,20.3125,-41.4375,-6.875,0.57617188,0.59313965,0.40258789,0.39263916,35.17578125,-76.82834625,10.03299999,-0.22233582,0.0,9.56348438,0.62931824,0.0,0.0,0.0,0.0,0.0,0.0
S,No Message Received,683044.0,0.0,25.37352753,1029.7611084,-136.56817627,-0.046875,-9.52734375,0.34375,0.00390625,0.00585938,0.00195312,20.3125,-41.4375,-6.875,0.57611084,0.59307861,0.40264893,0.3927002,0.0,0.0,0.0,-0.22233582,0.0,9.5315178,0.62931824,0.0,0.0,0.0,0.0,0.0,0.0
S,No Message Received,683057.0,0.0,25.37352753,1029.7611084,-136.56817627,-0.046875,-9.56640625,0.265625,-0.00195312,0.00585938,0.00390625,20.3125,-41.4375,-6.875,0.5760498,0.59307861,0.40264893,0.39276123,35.17578125,-76.82834625,10.10299969,-0.22233582,0.0,9.56687093,0.62931824,0.0,0.0,0.0,0.0,0.0,0.0
S,No Message Received,683084.0,0.0,25.37352753,1029.7611084,-136.56817627,-0.046875,-9.5625,0.2265625,0.0,0.0,-0.00195312,20.3125,-41.4375,-6.875,0.5760498,0.59307861,0.40264893,0.39282227,0.0,0.0,0.0,-0.22233582,0.0,9.56112289,0.62931824,0.0,0.0,0.0,0.0,0.0,0.0
S,No Message Received,683104.0,0.0,25.37352753,1029.7611084,-136.56817627,-0.0859375,-9.5625,0.265625,-0.00195312,-0.00195312,0.0,20.3125,-41.4375,-6.875,0.5760498,0.59307861,0.40264893,0.39276123,35.17578125,-76.82834625,10.04100037,-0.22233582,0.0,9.56245217,0.62931824,0.0,0.0,0.0,0.0,0.0,0.0
S,No Message Received,683134.0,0.0,25.37352753,1029.76074219,-136.56520081,-0.0078125,-9.56640625,0.1875,0.00195312,-0.00390625,0.0,20.3125,-41.4375,-6.875,0.57611084,0.59307861,0.40258789,0.39276123,0.0,0.0,0.0,-0.21936035,0.0,9.56369653,0.62931824,0.0,0.0,0.0,0.0,0.0,0.0
S,No Message Received,683161.0,0.0,25.37352753,1029.76074219,-136.56520081,-0.0859375,-9.5234375,0.2265625,0.00195312,-0.00390625,0.0,21.0625,-41.0,-6.8125,0.57611084,0.59307861,0.40258789,0.39276123,35.17578125,-76.82834625,10.01200008,-0.21936035,0.0,9.52157418,0.62931824,0.0,0.0,0.0,0.0,0.0,0.0
S,No Message Received,683194.0,0.0,25.37352753,1029.76074219,-136.56520081,-0.046875,-9.5625,0.34375,0.0,0.0,0.0,21.0625,-41.0,-6.8125,0.57611084,0.59307861,0.40258789,0.39276123,0.0,0.0,0.0,-0.21936035,0.0,9.56662544,0.62931824,0.0,0.0,0.0,0.0,0.0,0.0
S,No Message Received,683210.0,0.0,25.36781311,1029.76013184,-136.5602417,-0.0859375,-9.5625,0.265625,0.00195312,0.00195312,-0.00390625,21.8125,-40.125,-6.875,0.57611084,0.59307861,0.40258789,0.39276123,35.17578125,-76.82834625,9.98600006,-0.21440125,0.0,9.56241112,0.62931824,0.0,0.0,0.0,0.0,0.0,0.0
S,No Message Received,683242.0,0.0,25.36781311,1029.76013184,-136.5602417,-0.0078125,-7.953125,-1.0,-0.0078125,0.01367188,-0.00195312,21.8125,-39.8125,-7.5625,0.57611084,0.59307861,0.40264893,0.39276123,0.0,0.0,0.0,-0.21440125,-0.06084237,7.89667579,0.62931824,0.0,0.0,0.0,0.0,0.0,0.0
S,No Message Received,683262.0,0.0,25.36781311,1029.76013184,-136.5602417,0.26171875,-10.0625,-0.26953125,-0.01171875,-0.00195312,-0.00195312,21.75,-40.5625,-7.9375,0.5760498,0.59307861,0.40270996,0.39276123,35.17578125,-76.82834625,9.99100018,-0.21440125,-0.06084237,10.0415604,0.62931824,0.0,0.0,0.0,0.0,0.0,0.0
S,No Message Received,683292.0,0.0,25.36781311,1029.76013184,-136.5602417,-0.0078125,-9.6796875,-0.4609375,-0.0078125,0.01953125,0.00585938,20.5625,-41.375,-8.4375,0.5760498,0.59301758,0.402771,0.39282227,0.0,0.0,0.0,-0.21440125,-0.06084237,9.64690702,0.62931824,0.0,0.0,0.0,0.0,0.0,0.0
S,No Message Received,683312.0,0.0,25.36781311,1029.76013184,-136.5602417,0.109375,-9.44921875,-0.42578125,-0.01171875,-0.02734375,-0.00195312,22.4375,-41.6875,-6.8125,0.57598877,0.59313965,0.40270996,0.3927002,35.17578125,-76.82834625,9.91499996,-0.21440125,-0.06084237,9.42008599,0.62931824,0.0,0.0,0.0,0.0,0.0,0.0
S,No Message Received,683342.0,0.0,25.36781311,1029.75830078,-136.54534912,0.0703125,-9.48828125,-0.30859375,-0.00976562,-0.01171875,0.0,22.375,-40.9375,-7.875,0.5760498,0.59320068,0.40270996,0.39257812,0.0,0.0,0.0,-0.19950867,-0.06084237,9.46422151,0.62931824,0.0,0.0,0.0,0.0,0.0,0.0
S,No Message Received,683357.0,0.0,25.36781311,1029.75830078,-136.54534912,-0.12109375,-9.296875,0.37890625,0.00976562,-0.01953125,-0.00195312,22.375,-40.9375,-7.875,0.57611084,0.59326172,0.40264893,0.39245605,35.17578125,-76.82834625,9.82800007,-0.19950867,-0.06084237,9.30203781,0.62931824,0.0,0.0,0.0,0.0,0.0,0.0
S,No Message Received,683383.0,0.0,25.36781311,1029.75830078,-136.54534912,0.14453125,-9.5234375,0.34375,0.00976562,-0.00390625,0.0,22.375,-40.9375,-7.875,0.57617188,0.59332275,0.40258789,0.39233398,0.0,0.0,0.0,-0.19950867,-0.06084237,9.5302196,0.62931824,0.0,0.0,0.0,0.0,0.0,0.0
S,No Message Received,683410.0,0.0,25.36781311,1029.75830078,-136.54534912,-0.12109375,-9.60546875,0.15234375,-0.00195312,-0.00585938,0.0,21.4375,-40.9375,-6.875,0.57629395,0.59356689,0.40240479,0.39190674,35.17578506,-76.82834625,9.71399975,-0.19950867,-0.06084237,9.59978685,0.62931824,0.0,0.0,0.0,0.0,0.0,0.0
S,No Message Received,683443.0,0.0,25.37524414,1029.7590332,-136.55130005,-0.0078125,-9.72265625,0.2265625,0.0078125,0.0078125,-0.00195312,21.3125,-41.0,-8.375,0.57629395,0.59362793,0.40234375,0.3918457,0.0,0.0,0.0,-0.20545959,-0.06084237,9.72170763,0.62931824,0.0,0.0,0.0,0.0,0.0,0.0
S,No Message Received,683459.0,0.0,25.37524414,1029.7590332,-136.55130005,-0.046875,-9.5234375,-0.00390625,0.0,0.01367188,0.0,21.875,-44.4375,-8.0,0.57635498,0.59368896,0.40234375,0.39172363,35.17578506,-76.82834625,9.70600033,-0.20545959,-0.06084237,9.51148667,0.62931824,0.0,0.0,0.0,0.0,0.0,0.0
S,No Message Received,683497.0,0.0,25.37524414,1029.7590332,-136.55130005,0.03125,-9.484375,0.03515625,-0.00195312,-0.00390625,0.0,21.0625,-40.5625,-7.25,0.57629395,0.59368896,0.40246582,0.39172363,0.0,0.0,0.0,-0.20545959,-0.06084237,9.47535654,0.62931824,0.0,0.0,0.0,0.0,0.0,0.0
S,No Message Received,683519.0,0.0,25.37524414,1029.75866699,-136.54832458,-0.16015625,-9.5234375,0.41796875,0.00390625,-0.00585938,-0.00195312,21.0625,-40.5625,-7.25,0.57629395,0.59368896,0.40246582,0.3916626,35.17578506,-76.82834625,9.68799973,-0.20248413,-0.06084237,9.52957799,0.62931824,0.0,0.0,0.0,0.0,0.0,0.0
S,No Message Received,683554.0,0.0,25.37524414,1029.75866699,-136.54832458,0.03125,-9.56640625,0.37890625,0.0,0.00195312,0.0,21.0625,-40.5625,-7.25,0.57629395,0.59375,0.40246582,0.3916626,0.0,0.0,0.0,-0.20248413,-0.06084237,9.5732391,0.62931824,0.0,0.0,0.0,0.0,0.0,0.0
S,No Message Received,683584.0,0.0,25.37524414,1029.75866699,-136.54832458,-0.0859375,-9.5625,0.3046875,-0.00195312,-0.00585938,-0.00195312,21.0625,-40.5625,-7.25,0.57635498,0.59375,0.40246582,0.39154053,0.0,0.0,0.0,-0.20248413,-0.06084237,9.56431371,0.62931824,0.0,0.0,0.0,0.0,0.0,0.0
S,No Message Received,683597.0,0.0,25.37524414,1029.75866699,-136.54832458,-0.0859375,-9.60546875,0.2265625,-0.00195312,-0.0078125,0.0,21.375,-41.75,-7.25,0.57641602,0.59375,0.40246582,0.39147949,35.17578506,-76.82834625,9.61499977,-0.20248413,-0.06084237,9.60360858,0.62931824,0.0,0.0,0.0,0.0,0.0,0.0
S,No Message Received,683628.0,0.0,25.37524414,1029.75866699,-136.54832458,0.14453125,-9.4453125,0.265625,-0.00390625,0.00585938,-0.00390625,22.3125,-42.5,-8.0,0.57641602,0.59368896,0.40246582,0.39147949,0.0,0.0,0.0,-0.20248413,-0.06084237,9.44857203,0.62931824,0.0,0.0,0.0,0.0,0.0,0.0
S,No Message Received,683659.0,0.0,25.37524414,1029.7578125,-136.54138184,1.5234375,-67.02734375,10.609375,0.03710938,-0.1171875,-0.05078125,21.4375,-40.1875,-7.5625,0.57641602,0.59356689,0.40258789,0.39154053,35.17578506,-76.82834625,9.60999966,-0.19554138,1.72699924,67.47031006,0.62931824,0.0,0.0,0.0,1.72699924,0.0,0.0
S,No Message Received,683694.0,0.0,25.37524414,1029.7578125,-136.54138184,2.484375,-78.4375,3.5234375,0.41210938,-1.58203125,-0.02539062,21.4375,-40.1875,-7.5625,0.57653809,0.59362793,0.40258789,0.39135742,0.0,0.0,0.0,-0.19554138,4.13296044,78.53974858,0.62931824,0.0,0.0,0.0,4.13296044,0.0,0.0
S,No Message Received,683712.0,0.0,25.37524414,1029.7578125,-136.54138184,10.52734375,-78.4375,4.9375,0.1015625,-1.83398438,-0.01757812,21.4375,-40.1875,-7.5625,0.5871582,0.60430908,0.38171387,0.37994385,35.17578506,-76.82834625,9.58899975,-0.19554138,5.37501597,78.80108515,0.62931824,0.0,0.0,0.0,5.37501597,0.0,0.0
S,No Message Received,683743.0,0.0,25.37324524,1029.75756836,-136.53939819,-8.85546875,-78.4375,0.07421875,-0.17773438,-1.48046875,0.04492188,19.625,-43.8125,-11.5,0.59240723,0.61315918,0.36987305,0.36914062,0.0,0.0,0.0,-0.19355774,7.49232168,78.09818412,0.62931824,0.0,0.0,0.0,7.49232168,0.0,0.0
S,No Message Received,683767.0,0.0,25.37324524,1029.75756836,-136.53939819,-2.53515625,-78.44140625,2.37109375,-0.06835938,-1.82421875,-0.13671875,20.0625,-43.0,-9.9375,0.59857178,0.61791992,0.36065674,0.36022949,35.17578506,-76.82834625,9.59799957,-0.19355774,9.1376488,78.35329667,0.62931824,0.0,0.0,0.0,9.1376488,0.0,0.0
M,No Message Received,683798.0,0.0,25.37324524,1029.75756836,-136.53939819,0.3359375,-78.44140625,4.2109375,0.08398438,-2.00976562,-0.02539062,20.0625,-43.0,-9.9375,0.60925293,0.62805176,0.34332275,0.34130859,0.0,0.0,0.0,-0.19355774,11.26814318,78.52362522,0.62931824,0.0,0.0,0.0,11.26814318,0.0,0.0
M,No Message Received,683811.0,0.0,25.37324524,1029.75756836,-136.53939819,-2.99609375,-78.44140625,0.953125,0.03710938,-1.84375,0.02148438,20.0625,-43.0,-9.9375,0.61486816,0.63433838,0.33258057,0.32995605,35.17578506,-76.82834625,9.61999989,-0.19355774,12.15784388,78.23651549,0.62931824,0.0,0.0,0.0,12.15784388,0.0,0.0
M,No Message Received,683843.0,0.0,25.37324524,1029.75756836,-136.53939819,5.77734375,-78.44140625,0.91796875,0.15820312,-1.4140625,0.05273438,17.375,-42.375,-14.5625,0.62207031,0.64306641,0.31726074,0.31433105,0.0,0.0,0.0,-0.19355774,14.35693718,78.51966553,0.62931824,0.0,0.0,0.0,14.35693718,0.0,0.0
M,No Message Received,683867.0,0.0,25.37324524,1029.26025391,-132.45117188,6.390625,-78.44140625,1.1484375,0.15429688,-1.30859375,0.07421875,18.4375,-43.5,-13.375,0.62530518,0.64855957,0.30828857,0.30554199,35.17578888,-76.82834625,9.63799953,3.89466858,16.00686608,78.54503744,3.89466858,0.0,0.0,0.0,16.00686608,0.0,0.0
M,No Message Received,683902.0,0.0,25.37324524,1029.26025391,-132.45117188,1.6015625,-78.4375,3.0625,0.2421875,-1.08789062,0.15820312,18.4375,-43.5,-13.375,0.62664795,0.65124512,0.30389404,0.3013916,0.0,0.0,0.0,3.89466858,18.41071118,78.47928859,3.89466858,0.0,0.0,0.0,18.41071118,0.0,0.0
M,No Message Received,683916.0,0.0,25.37324524,1029.26025391,-132.45117188,1.140625,-78.4375,1.796875,0.22851562,-1.0,0.203125,18.4375,-43.5,-13.375,0.6293335,0.65905762,0.29223633,0.29022217,35.17578888,-76.82834625,9.64799976,3.89466858,19.37076602,78.37334585,3.89466858,0.0,0.0,0.0,19.37076602,0.0,0.0
M,No Message Received,683941.0,0.0,25.37324524,1029.26025391,-132.45117188,3.70703125,-78.44140625,2.5625,0.24023438,-0.74023438,0.1796875,18.4375,-43.5,-13.375,0.62976074,0.66156006,0.28863525,0.2869873,0.0,0.0,0.0,3.89466858,21.08791383,78.4839124,3.89466858,0.0,0.0,0.0,21.08791383,0.0,0.0
M,No Message Received,683964.0,0.0,25.37524414,1029.26049805,-132.45414734,2.0234375,-78.4375,2.06640625,0.23828125,-0.53515625,0.203125,18.4375,-43.5,-13.375,0.63018799,0.66845703,0.27966309,0.2789917,35.17578888,-76.82834625,9.65699959,3.89169312,22.66524658,78.37768467,3.89466858,0.0,0.0,0.0,22.66524658,0.0,0.0
M,No Message Received,683991.0,0.0,25.37524414,1029.26049805,-132.45414734,2.98046875,-78.4375,3.1015625,0.23242188,-0.1640625,0.18359375,16.5625,-44.3125,-14.25,0.62969971,0.67242432,0.27490234,0.27526855,0.0,0.0,0.0,3.89169312,24.51897059,78.45444509,3.89466858,0.0,0.0,0.0,24.51897059,0.0,0.0
M,No Message Received,684012.0,0.0,25.37524414,1029.26049805,-132.45414734,2.13671875,-78.44140625,2.44921875,0.19140625,0.13867188,0.17382812,16.5625,-44.3125,-14.25,0.62786865,0.67694092,0.27050781,0.27258301,35.17578888,-76.82834625,9.66699982,3.89169312,25.95888825,78.36550748,3.89466858,0.0,0.0,0.0,25.95888825,0.0,0.0
M,No Message Received,684042.0,0.0,25.37524414,1029.26049805,-132.45414734,1.6015625,-78.44140625,3.828125,0.13867188,0.63476562,0.14648438,16.5625,-44.3125,-14.25,0.62597656,0.67883301,0.26971436,0.27307129,0.0,0.0,0.0,3.89169312,28.01882895,78.46269004,3.89466858,0.0,0.0,0.0,28.01882895,0.0,0.0
M,No Message Received,684055.0,0.0,25.37524414,1027.58422852,-118.66469574,1.984375,-78.44140625,4.44140625,0.10742188,0.81054688,0.14257812,16.5625,-44.3125,-14.25,0.62207031,0.67950439,0.27233887,0.27783203,35.17578888,-76.82834625,9.65499973,17.68114471,28.91214972,78.51498182,17.68114471,0.0,0.0,0.0,28.91214972,0.0,0.0
M,No Message Received,684083.0,0.0,25.37524414,1027.58422852,-118.66469574,1.02734375,-78.44140625,3.90625,-0.07226562,1.5625,0.12109375,15.875,-45.125,-13.1875,0.61499023,0.67523193,0.28308105,0.29272461,0.0,0.0,0.0,17.68114471,30.83465339,78.45884547,17.68114471,0.0,0.0,0.0,30.83465339,0.0,0.0
M,No Message Received,684112.0,0.0,25.37524414,1027.58422852,-118.66469574,1.1796875,-78.4375,3.40625,-0.15234375,1.95703125,0.09375,15.875,-45.125,-13.1875,0.61297607,0.6730957,0.28704834,0.29803467,35.17579269,-76.82834625,9.74699974,17.68114471,32.82447229,78.41244482,17.68114471,0.0,0.0,0.0,32.82447229,0.0,0.0
M,No Message Received,684142.0,0.0,25.37524414,1027.58422852,-118.66469574,1.41015625,-78.44140625,3.3671875,-0.296875,2.57226562,0.06054688,15.875,-45.125,-13.1875,0.60827637,0.66729736,0.29681396,0.31091309,0.0,0.0,0.0,17.68114471,34.88318761,78.4218441,17.68114471,0.0,0.0,0.0,34.88318761,0.0,0.0
M,No Message Received,684161.0,0.0,25.36867523,1027.58361816,-118.65972137,1.640625,-78.44140625,3.13671875,-0.3671875,3.015625,0.03515625,15.875,-45.125,-13.1875,0.59979248,0.65472412,0.31530762,0.33483887,35.17579269,-76.82834625,9.75300026,17.68611908,36.18673041,78.40551544,17.68611908,0.0,0.0,0.0,36.18673041,0.0,0.0
M,No Message Received,684191.0,0.0,25.36867523,1027.58361816,-118.65972137,1.90625,-78.4375,4.01953125,-0.49609375,3.97265625,-0.07226562,18.625,-44.1875,-8.5,0.5793457,0.62097168,0.35772705,0.38830566,0.0,0.0,0.0,17.68611908,38.24636884,78.45261442,17.68611908,0.0,0.0,0.0,38.24636884,0.0,0.0
M,No Message Received,684216.0,0.0,25.36867523,1027.58361816,-118.65972137,1.48828125,-78.44140625,3.90625,-0.52929688,4.20898438,-0.11132812,18.625,-44.1875,-8.5,0.57391357,0.61181641,0.36810303,0.40100098,35.17579269,-76.82834625,9.75699997,17.68611908,39.96263936,78.44882104,17.68611908,0.0,0.0,0.0,39.96263936,0.0,0.0
M,No Message Received,684242.0,0.0,25.36867523,1027.58361816,-118.65972137,1.83203125,-78.44140625,3.67578125,-0.53710938,4.94140625,-0.2109375,18.75,-43.4375,-6.9375,0.56787109,0.6015625,0.37927246,0.41442871,0.0,0.0,0.0,17.68611908,41.74658016,78.41110738,17.68611908,0.0,0.0,0.0,41.74658016,0.0,0.0
M,No Message Received,684262.0,0.0,25.36867523,1025.17993164,-98.85486603,1.5234375,-78.44140625,2.71875,-0.54101562,5.3984375,-0.265625,18.75,-43.4375,-6.9375,0.54675293,0.56652832,0.41497803,0.45599365,35.17579269,-76.82834625,9.75699997,37.49097443,43.11846355,78.39216982,37.49097443,0.0,0.0,0.0,43.11846355,0.0,0.0
M,No Message Received,684292.0,0.0,25.36867523,1025.17993164,-98.85486603,1.71484375,-78.4375,2.3359375,-0.45703125,6.05078125,-0.32226562,20.4375,-44.875,-1.3125,0.52880859,0.53826904,0.44140625,0.48553467,0.0,0.0,0.0,37.49097443,45.17562135,78.36992666,37.49097443,0.0,0.0,0.0,45.17562135,0.0,0.0
M,No Message Received,684312.0,0.0,25.36867523,1025.17993164,-98.85486603,2.0234375,-78.4375,2.1796875,-0.359375,6.43164062,-0.3203125,20.4375,-44.875,-1.3125,0.49517822,0.48858643,0.48394775,0.53094482,35.17579269,-76.82834625,9.75,37.49097443,46.54689974,78.36191954,37.49097443,0.0,0.0,0.0,46.54689974,0.0,0.0
M,No Message Received,684343.0,0.0,25.36867523,1025.17993164,-98.85486603,2.55859375,-78.44140625,1.8359375,-0.22070312,6.953125,-0.24414062,20.4375,-44.875,-1.3125,0.46777344,0.45098877,0.51324463,0.56072998,0.0,0.0,0.0,37.49097443,48.67284468,78.37686884,37.49097443,0.0,0.0,0.0,48.67284468,0.0,0.0
M,No Message Received,684362.0,0.0,25.37324524,1025.18029785,-98.85784912,2.484375,-78.44140625,2.37109375,-0.13085938,7.31640625,-0.13867188,18.0625,-44.9375,8.375,0.418396,0.38830566,0.55706787,0.60321045,35.17579269,-76.82834625,9.74300003,37.48799133,49.97567001,78.36775458,37.49097443,0.0,0.0,0.0,49.97567001,0.0,0.0
M,No Message Received,684395.0,0.0,25.37324524,1025.18029785,-98.85784912,2.8671875,-78.4375,2.6796875,-0.08398438,8.23242188,0.16601562,16.125,-44.625,12.4375,0.28668213,0.24169922,0.63543701,0.67504883,0.0,0.0,0.0,37.48799133,52.2385325,78.36959058,37.49097443,0.0,0.0,0.0,52.2385325,0.0,0.0
M,No Message Received,684427.0,0.0,25.37324524,1025.18029785,-98.85784912,2.40625,-78.44140625,2.91015625,-0.10351562,8.40429688,0.22460938,16.125,-44.625,12.4375,0.23272705,0.18634033,0.65582275,0.69354248,35.17579651,-76.82834625,9.71500015,37.48799133,54.43266229,78.36455594,37.49097443,0.0,0.0,0.0,54.43266229,0.0,0.0
M,No Message Received,684461.0,0.0,25.37324524,1025.18029785,-98.85784912,2.25390625,-78.4375,2.3359375,-0.2890625,9.17773438,0.37109375,11.9375,-45.25,14.875,0.11096191,0.06567383,0.68286133,0.71905518,35.17579651,-76.82834625,9.70899963,37.48799133,56.76321884,78.34378079,37.49097443,0.0,0.0,0.0,56.76321884,0.0,0.0
M,No Message Received,684494.0,0.0,25.37324524,1021.52154541,-68.63938904,1.9453125,-75.98828125,2.640625,-0.45898438,9.93164062,0.34765625,-1.3125,-43.125,19.0625,0.00726318,-0.0355835,0.6875,0.72528076,0.0,0.0,0.0,67.70645142,58.94201764,75.82220599,67.70645142,0.0,0.0,0.0,58.94201764,0.0,0.0
M,No Message Received,684517.0,0.0,25.37324524,1021.52154541,-68.63938904,2.17578125,-72.4609375,-0.0390625,-0.5625,10.35546875,0.28515625,-1.3125,-43.125,19.0625,0.06121826,0.10266113,-0.68182373,-0.72167969,35.17579651,-76.82834625,9.69999981,67.70645142,60.38164417,72.39045801,67.70645142,0.0,0.0,0.0,60.38164417,0.0,0.0
M,No Message Received,684552.0,0.0,25.37324524,1021.52154541,-68.63938904,2.0625,-69.2421875,1.1484375,-0.54882812,10.99609375,0.16015625,-1.3125,-43.125,19.0625,0.09698486,0.13787842,-0.67608643,-0.71728516,0.0,0.0,0.0,67.70645142,62.45614125,69.06934508,67.70645142,0.0,0.0,0.0,62.45614125,0.0,0.0
M,No Message Received,684584.0,0.0,25.37267303,1021.52148438,-68.63938904,3.48046875,-62.6171875,0.53515625,-0.41015625,11.73632812,0.07617188,-16.1875,-43.4375,7.375,0.31567383,0.3572998,-0.59790039,-0.64434814,35.17579651,-76.82835388,9.60000038,67.70645142,64.14507875,62.57729675,67.70645142,0.0,0.0,0.0,64.14507875,0.0,0.0
M,No Message Received,684622.0,0.0,25.37267303,1021.52148438,-68.63938904,2.59765625,-57.60546875,0.53515625,-0.22070312,12.51171875,0.15625,-19.75,-45.25,-2.875,0.48254395,0.52758789,-0.47344971,-0.51446533,0.0,0.0,0.0,67.70645142,65.96107318,57.5873273,67.70645142,0.0,0.0,0.0,65.96107318,0.0,0.0
M,No Message Received,684661.0,0.0,25.37267303,1021.52148438,-68.63938904,2.3671875,-56.07421875,0.15234375,-0.1953125,12.7265625,0.21289062,-16.9375,-44.75,-12.875,0.51165771,0.55731201,-0.44268799,-0.48126221,35.17579651,-76.82835388,9.57199955,67.70645142,67.76659977,56.09355352,67.70645142,0.0,0.0,0.0,67.76659977,0.0,0.0
M,No Message Received,684694.0,0.0,25.37267303,1017.95825195,-39.1256752,2.828125,-50.28515625,1.33984375,-0.26171875,13.27734375,0.33984375,-11.5,-44.5,-18.625,0.63049316,0.67541504,-0.2598877,-0.28070068,0.0,0.0,0.0,97.22016525,69.10574397,50.37812725,97.22016525,0.0,0.0,0.0,69.10574397,0.0,0.0
M,No Message Received,684716.0,0.0,25.37267303,1017.95825195,-39.1256752,2.63671875,-42.55078125,0.45703125,-0.30859375,13.39648438,0.35742188,-6.625,-44.6875,-19.875,0.6619873,0.70397949,-0.17596436,-0.18774414,35.17580032,-76.82835388,9.54199982,97.22016525,69.82797713,42.62678014,97.22016525,0.0,0.0,0.0,69.82797713,0.0,0.0
M,No Message Received,684752.0,0.0,25.37267303,1017.95825195,-39.1256752,2.51953125,-26.45703125,-0.578125,-0.53125,13.90820312,0.3359375,2.5625,-44.625,-22.875,0.69189453,0.72192383,0.00378418,0.01086426,0.0,0.0,0.0,97.22016525,70.42886053,26.48920549,97.22016525,0.0,0.0,0.0,70.42886053,0.0,0.0
M,No Message Received,684778.0,0.0,25.37123871,1017.95812988,-39.12467194,3.05859375,-57.67578125,6.125,-0.58007812,14.08007812,0.2734375,2.5625,-44.625,-22.875,0.68847656,0.70983887,0.09686279,0.11273193,35.17580032,-76.82835388,9.48999977,97.22116852,71.67630783,57.77674247,97.22116852,0.0,0.0,0.0,71.67630783,0.0,0.0
M,No Message Received,684812.0,0.0,25.37123871,1017.95812988,-39.12467194,3.25,-5.765625,-0.69140625,-0.68945312,14.40039062,0.22070312,2.5625,-44.625,-22.875,0.6817627,0.69830322,0.14385986,0.16381836,35.17580032,-76.82836151,9.43799973,97.22116852,71.53948473,5.77379094,97.22116852,0.0,0.0,0.0,71.67630783,0.0,0.0
M,No Message Received,684842.0,0.0,25.37123871,1017.95812988,-39.12467194,3.703125,-2.9375,-3.2578125,-0.68945312,14.6015625,0.13671875,2.5625,-44.625,-22.875,0.64251709,0.6416626,0.28009033,0.31134033,0.0,0.0,0.0,97.22116852,71.33691858,3.04579522,97.22116852,0.0,0.0,0.0,71.67630783,0.0,0.0
M,No Message Received,684861.0,0.0,25.37123871,1017.95812988,-39.12467194,3.51953125,-1.05859375,-2.72265625,-0.59375,14.68554688,0.13671875,2.5625,-44.625,-22.875,0.57275391,0.55340576,0.40722656,0.44702148,35.17580032,-76.82836151,9.33699989,97.22116852,71.17354179,1.19922117,97.22116852,0.0,0.0,0.0,71.67630783,0.0,0.0
M,No Message Received,684892.0,0.0,25.37123871,1015.25274658,-16.66134644,2.59765625,0.47265625,-3.375,-0.46679688,14.69335938,0.18164062,2.5625,-44.625,-22.875,0.51025391,0.47949219,0.48266602,0.52606201,0.0,0.0,0.0,119.68449402,70.86170678,-0.26119358,119.68449402,0.0,0.0,0.0,71.67630783,0.0,0.0
M,No Message Received,684911.0,0.0,25.37123871,1015.25274658,-16.66134644,1.87109375,1.0859375,-2.87890625,-0.37890625,14.78515625,0.20898438,18.0,-41.875,11.0,0.39526367,0.35058594,0.5770874,0.6227417,35.17580032,-76.82836151,9.27099991,119.68449402,70.65844787,-0.89983761,119.68449402,0.0,0.0,0.0,71.67630783,0.0,0.0
M,No Message Received,684942.0,0.0,25.37123871,1015.25274658,-16.66134644,3.48046875,2.234375,-2.1484375,-0.36914062,14.95117188,0.2578125,18.0,-41.875,11.0,0.30596924,0.25439453,0.62579346,0.6708374,0.0,0.0,0.0,119.68449402,70.29266198,-2.00154498,119.68449402,0.0,0.0,0.0,71.67630783,0.0,0.0
M,No Message Received,684961.0,0.0,25.37123871,1015.25274658,-16.66134644,3.25,4.73046875,-2.4921875,-0.45703125,15.00585938,0.30664062,18.0,-41.875,11.0,0.15979004,0.10095215,0.67327881,0.71478271,35.17580414,-76.82836151,9.21100044,119.68449402,70.02122075,-4.48838008,119.68449402,0.0,0.0,0.0,71.67630783,0.0,0.0
M,No Message Received,684991.0,0.0,25.37381744,1015.25305176,-16.66335297,2.09765625,4.453125,-0.578125,-0.578125,15.1796875,0.24414062,18.0,-41.875,11.0,0.05621338,-0.00506592,0.68640137,0.72497559,0.0,0.0,0.0,119.68248749,69.59775467,-4.317536,119.68449402,0.0,0.0,0.0,71.67630783,0.0,0.0
M,No Message Received,685011.0,0.0,25.37381744,1015.25305176,-16.66335297,1.5234375,5.21875,-3.14453125,-0.6796875,15.31445312,0.16210938,18.0,-41.875,11.0,0.10162354,0.16400146,-0.6762085,-0.71099854,35.17580414,-76.82836151,9.14900017,119.68248749,69.30083748,-5.04785952,119.68449402,0.0,0.0,0.0,71.67630783,0.0,0.0
M,No Message Received,685041.0,0.0,25.37381744,1015.25305176,-16.66335297,1.48828125,4.4140625,-1.91796875,-0.6796875,15.44921875,-0.04882812,-18.25,-42.75,2.75,0.35162354,0.41394043,-0.57800293,-0.60900879,0.0,0.0,0.0,119.68248749,68.87864667,-4.2750271,119.68449402,0.0,0.0,0.0,71.67630783,0.0,0.0
C,No Message Received,685065.0,0.0,25.37381744,1015.25305176,-16.66335297,2.7890625,4.49609375,-1.6875,-0.65039062,15.4765625,-0.09765625,-18.25,-42.75,2.75,0.39593506,0.45806885,-0.54736328,-0.57775879,35.17580414,-76.82836151,9.09700012,119.68248749,68.540945,-4.27290288,119.68449402,0.0,0.0,0.0,71.67630783,0.0,0.0
C,No Message Received,685091.0,0.0,25.37381744,1012.49829102,6.26054001,2.94140625,3.9921875,-2.0703125,-0.47070312,15.4921875,-0.1484375,-16.1875,-44.3125,-12.125,0.54803467,0.60906982,-0.39239502,-0.41796875,0.0,0.0,0.0,142.60638046,68.18765562,-3.7900533,142.60638046,0.0,0.0,0.0,71.67630783,0.0,0.0
C,No Message Received,685115.0,0.0,25.37381744,1012.49829102,6.26054001,2.3671875,4.109375,-2.03125,-0.43554688,15.51171875,-0.13867188,-16.1875,-44.3125,-12.125,0.57763672,0.63812256,-0.34790039,-0.37158203,35.17580414,-76.82836151,9.04199982,142.60638046,67.85658941,-3.99642542,142.60638046,0.0,0.0,0.0,71.67630783,0.0,0.0
C,No Message Received,685141.0,0.0,25.37381744,1012.49829102,6.26054001,1.37109375,4.26953125,-0.73046875,-0.3671875,15.52539062,-0.03710938,-4.1875,-46.5,-21.25,0.60455322,0.66448975,-0.29968262,-0.32110596,0.0,0.0,0.0,142.60638046,67.49216797,-4.21820887,142.60638046,0.0,0.0,0.0,71.67630783,0.0,0.0
C,No Message Received,685162.0,0.0,25.37381744,1012.49829102,6.26054001,2.55859375,4.1875,-1.49609375,-0.41015625,15.47265625,0.03125,-4.1875,-46.5,-21.25,0.66033936,0.71710205,-0.15136719,-0.16381836,35.17580414,-76.82836914,8.98700047,142.60638046,67.19897245,-4.16369176,142.60638046,0.0,0.0,0.0,71.67630783,0.0,0.0
C,No Message Received,685191.0,0.0,25.37381744,1012.49829102,6.26054001,2.8671875,4.1875,-0.80859375,-0.54492188,15.453125,0.08203125,10.0,-43.125,-18.3125,0.67871094,0.73114014,-0.04638672,-0.05126953,0.0,0.0,0.0,142.60638046,66.79335018,-4.18897493,142.60638046,0.0,0.0,0.0,71.67630783,0.0,0.0
C,No Message Received,685212.0,0.0,25.38523865,1012.49938965,6.25098038,2.13671875,4.3359375,0.1875,-0.59179688,15.48632812,0.03125,10.0,-43.125,-18.3125,0.67626953,0.71899414,0.10931396,0.11730957,35.17580795,-76.82836914,8.95600033,142.59682083,66.49659715,-4.33309633,142.60638046,0.0,0.0,0.0,71.67630783,0.0,0.0
C,No Message Received,685241.0,0.0,25.38523865,1012.49938965,6.25098038,2.55859375,4.49609375,-1.99609375,-0.67773438,15.59570312,-0.12695312,19.125,-42.625,-6.9375,0.65557861,0.68859863,0.21063232,0.22729492,0.0,0.0,0.0,142.59682083,66.08039878,-4.55366812,142.60638046,0.0,0.0,0.0,71.67630783,0.0,0.0
C,No Message Received,685256.0,0.0,25.38523865,1012.49938965,6.25098038,2.25390625,4.453125,-1.87890625,-0.65429688,15.63476562,-0.23242188,21.1875,-41.75,-3.875,0.56903076,0.57678223,0.39916992,0.42913818,35.17580795,-76.82836914,8.97399998,142.59682083,65.86624284,-4.47906224,142.60638046,0.0,0.0,0.0,71.67630783,0.0,0.0
C,No Message Received,685294.0,0.0,25.38523865,1012.49938965,6.25098038,1.79296875,3.73046875,-2.1875,-0.49609375,15.703125,-0.33203125,18.875,-42.625,7.3125,0.42584229,0.40515137,0.55438232,0.5892334,0.0,0.0,0.0,142.59682083,65.35424631,-3.67559292,142.60638046,0.0,0.0,0.0,71.67630783,0.0,0.0
C,No Message Received,685316.0,0.0,25.38523865,1009.82080078,28.58958626,1.9453125,4.19140625,-1.91796875,-0.453125,15.72070312,-0.36523438,18.25,-43.0625,9.5,0.34118652,0.30773926,0.61077881,0.64483643,35.17580795,-76.82836914,8.89900017,164.93542671,65.04848669,-4.10016459,164.93542671,0.0,0.0,0.0,71.67630783,0.0,0.0
C,No Message Received,685354.0,0.0,25.38523865,1009.82080078,28.58958626,2.59765625,4.33984375,-1.3046875,-0.40234375,15.72460938,-0.34960938,18.25,-43.0625,9.5,0.13922119,0.08319092,0.68426514,0.7109375,0.0,0.0,0.0,164.93542671,64.51711401,-4.18549163,164.93542671,0.0,0.0,0.0,71.67630783,0.0,0.0
C,No Message Received,685367.0,0.0,25.38523865,1009.82080078,28.58958626,1.296875,3.6875,-1.95703125,-0.30273438,15.75195312,-0.28515625,18.25,-43.0625,9.5,0.08929443,0.02905273,0.69171143,0.71600342,35.17580795,-76.82837677,8.8210001,164.93542671,64.34305438,-3.59120223,164.93542671,0.0,0.0,0.0,71.67630783,0.0,0.0
C,No Message Received,685400.0,0.0,25.39237213,1009.82147217,28.58403969,2.3671875,3.80859375,-0.8828125,-0.296875,15.72460938,-0.21289062,-10.75,-42.75,16.3125,0.03643799,-0.02783203,0.69555664,0.71704102,0.0,0.0,0.0,164.92988014,63.89879153,-3.66451064,164.93542671,0.0,0.0,0.0,71.67630783,0.0,0.0
C,No Message Received,685416.0,0.0,25.39237213,1009.82147217,28.58403969,1.984375,3.8828125,-1.3828125,-0.328125,15.6953125,-0.203125,-10.75,-42.75,16.3125,0.17651367,0.25097656,-0.66864014,-0.67730713,35.17581177,-76.82837677,8.73099995,164.92988014,63.681483,-3.78378277,164.93542671,0.0,0.0,0.0,71.67630783,0.0,0.0
C,No Message Received,685445.0,0.0,25.39237213,1009.82147217,28.58403969,2.328125,4.1484375,-1.265625,-0.31640625,15.69140625,-0.17578125,-17.875,-44.3125,4.6875,0.32989502,0.40570068,-0.60333252,-0.60211182,0.0,0.0,0.0,164.92988014,63.27939017,-4.06727024,164.93542671,0.0,0.0,0.0,71.67630783,0.0,0.0
C,No Message Received,685462.0,0.0,25.39237213,1009.82147217,28.58403969,1.640625,4.30859375,-1.87890625,-0.45117188,15.74804688,-0.18945312,-17.875,-44.3125,4.6875,0.41784668,0.49176025,-0.543396,-0.53692627,35.17581177,-76.82837677,8.69099998,164.92988014,63.03954837,-4.31034122,164.93542671,0.0,0.0,0.0,71.67630783,0.0,0.0
C,No Message Received,685491.0,0.0,25.39237213,1009.82147217,28.58403969,1.44921875,4.30859375,-0.76953125,-0.49414062,15.85742188,-0.26953125,-18.25,-43.25,-11.4375,0.53491211,0.60253906,-0.42523193,-0.41229248,0.0,0.0,0.0,164.92988014,62.63090223,-4.29324603,164.93542671,0.0,0.0,0.0,71.67630783,0.0,0.0
C,No Message Received,685506.0,0.0,25.39237213,1007.37072754,49.06437302,3.2109375,4.03125,-1.3046875,-0.50585938,15.96679688,-0.35546875,-16.375,-45.875,-14.0,0.5680542,0.63275146,-0.37927246,-0.36480713,35.17581177,-76.82837677,8.66499996,185.41021347,62.42384734,-4.00565923,185.41021347,0.0,0.0,0.0,71.67630783,0.0,0.0
C,No Message Received,685540.0,0.0,25.39237213,1007.37072754,49.06437302,3.32421875,3.765625,-0.84375,-0.37695312,15.99609375,-0.4453125,-5.5625,-43.875,-21.75,0.66149902,0.71264648,-0.17382812,-0.15594482,0.0,0.0,0.0,185.41021347,61.96328178,-3.74804612,185.41021347,0.0,0.0,0.0,71.67630783,0.0,0.0
C,No Message Received,685581.0,0.0,25.39237213,1007.37072754,49.06437302,2.55859375,3.7265625,-1.83984375,-0.265625,15.99804688,-0.41601562,8.0,-44.0,-20.625,0.67419434,0.72180176,-0.11932373,-0.10095215,0.0,0.0,0.0,185.41021347,61.40636384,-3.78536435,185.41021347,0.0,0.0,0.0,71.67630783,0.0,0.0
C,No Message Received,685596.0,0.0,25.39322662,1007.37078857,49.06386566,1.90625,3.8046875,-0.921875,-0.20507812,16.0078125,-0.37109375,11.875,-41.875,-17.4375,0.6809082,0.71392822,0.10565186,0.12469482,35.17581558,-76.82837677,8.67500019,185.40970612,61.20186868,-3.83501043,185.41021347,0.0,0.0,0.0,71.67630783,0.0,0.0
C,No Message Received,685630.0,0.0,25.39322662,1007.37078857,49.06386566,3.4375,3.3828125,-0.76953125,-0.18945312,15.953125,-0.2734375,11.875,-41.875,-17.4375,0.67144775,0.70092773,0.16021729,0.17938232,0.0,0.0,0.0,185.40970612,60.75208253,-3.43100436,185.41021347,0.0,0.0,0.0,71.67630783,0.0,0.0
C,No Message Received,685657.0,0.0,25.39322662,1007.37078857,49.06386566,2.7109375,3.34375,-1.45703125,-0.234375,15.94726562,-0.1953125,11.875,-41.875,-17.4375,0.56103516,0.5723877,0.41235352,0.43304443,35.17581558,-76.8283844,8.65200043,185.40970612,60.39564846,-3.40326212,185.41021347,0.0,0.0,0.0,71.67630783,0.0,0.0
C,No Message Received,685690.0,0.0,25.39322662,1007.37078857,49.06386566,2.94140625,3.57421875,-1.15234375,-0.30664062,15.97070312,-0.203125,11.875,-41.875,-17.4375,0.52734375,0.53485107,0.45611572,0.47729492,0.0,0.0,0.0,185.40970612,59.95328267,-3.60702372,185.41021347,0.0,0.0,0.0,71.67630783,0.0,0.0
C,No Message Received,685711.0,0.0,25.39322662,1005.0703125,68.32524109,2.8671875,4.19140625,-1.3046875,-0.34179688,15.99414062,-0.23046875,11.875,-41.875,-17.4375,0.40856934,0.40411377,0.56713867,0.59002686,35.1758194,-76.8283844,8.63300037,204.67108154,59.6594793,-4.19263685,204.67108154,0.0,0.0,0.0,71.67630783,0.0,0.0
C,No Message Received,685740.0,0.0,25.39322662,1005.0703125,68.32524109,1.83203125,3.9921875,-1.2265625,-0.32617188,16.0703125,-0.29882812,11.875,-41.875,-17.4375,0.31610107,0.30297852,0.62371826,0.64752197,0.0,0.0,0.0,204.67108154,59.26075822,-3.9510026,204.67108154,0.0,0.0,0.0,71.67630783,0.0,0.0
C,No Message Received,685760.0,0.0,25.39322662,1005.0703125,68.32524109,3.2109375,4.5703125,-1.0,-0.26171875,16.10546875,-0.33007812,11.875,-41.875,-17.4375,0.16271973,0.13616943,0.67889404,0.70294189,35.1758194,-76.8283844,8.61299992,204.67108154,58.97523148,-4.478337,204.67108154,0.0,0.0,0.0,71.67630783,0.0,0.0
C,No Message Received,685791.0,0.0,25.39322662,1005.0703125,68.32524109,3.05859375,3.4609375,-2.0703125,-0.203125,16.12109375,-0.29882812,11.875,-41.875,-17.4375,0.05499268,0.01965332,0.69445801,0.71716309,0.0,0.0,0.0,204.67108154,58.56845801,-3.32372506,204.67108154,0.0,0.0,0.0,71.67630783,0.0,0.0
C,No Message Received,685811.0,0.0,25.38980103,1005.06994629,68.32827759,3.515625,3.5390625,-2.1484375,-0.16992188,16.08984375,-0.24609375,11.875,-41.875,-17.4375,0.10925293,0.15600586,-0.68493652,-0.70330811,35.1758194,-76.8283844,8.6260004,204.67411804,58.30482619,-3.38359064,204.67411804,0.0,0.0,0.0,71.67630783,0.0,0.0
C,No Message Received,685842.0,0.0,25.38980103,1005.06994629,68.32827759,3.5546875,3.765625,-1.0,-0.18945312,16.03125,-0.13476562,-20.125,-44.4375,1.9375,0.36474609,0.42163086,-0.58422852,-0.58978271,0.0,0.0,0.0,204.67411804,57.88871198,-3.62503915,204.67411804,0.0,0.0,0.0,71.67630783,0.0,0.0
C,No Message Received,685866.0,0.0,25.38980103,1005.06994629,68.32827759,2.328125,3.8046875,-1.07421875,-0.24023438,16.03710938,-0.11328125,-18.8125,-46.75,-5.5,0.45294189,0.51013184,-0.51715088,-0.5168457,35.17582321,-76.8283844,8.61699963,204.67411804,57.56369423,-3.74440633,204.67411804,0.0,0.0,0.0,71.67630783,0.0,0.0
C,No Message Received,685900.0,0.0,25.38980103,1005.06994629,68.32827759,2.51953125,3.921875,-1.57421875,-0.3359375,16.05273438,-0.16015625,-18.8125,-46.75,-5.5,0.49267578,0.54919434,-0.47888184,-0.47576904,0.0,0.0,0.0,204.67411804,57.09767765,-3.9083699,204.67411804,0.0,0.0,0.0,71.67630783,0.0,0.0
C,No Message Received,685915.0,0.0,25.38980103,1002.74914551,87.79576111,2.8671875,3.7265625,-1.15234375,-0.33398438,16.08203125,-0.19726562,-18.8125,-46.75,-5.5,0.59381104,0.64526367,-0.34503174,-0.33465576,35.17582321,-76.8283844,8.61299992,224.14160156,56.89511291,-3.706316,224.14160156,0.0,0.0,0.0,71.67630783,0.0,0.0
C,No Message Received,685940.0,0.0,25.38980103,1002.74914551,87.79576111,3.32421875,3.609375,-1.6875,-0.28125,16.1171875,-0.27539062,-2.875,-44.5625,-23.125,0.67523193,0.71551514,-0.13446045,-0.11828613,0.0,0.0,0.0,224.14160156,56.5596168,-3.62184441,224.14160156,0.0,0.0,0.0,71.67630783,0.0,0.0
C,No Message Received,685965.0,0.0,25.38980103,1002.74914551,87.79576111,2.17578125,3.88671875,-2.03125,-0.22851562,16.12890625,-0.26367188,4.0625,-43.0,-21.25,0.68969727,0.72369385,-0.02258301,-0.00457764,35.17582321,-76.82839203,8.6079998,224.14160156,56.21624039,-3.93705643,224.14160156,0.0,0.0,0.0,71.67630783,0.0,0.0
C,No Message Received,685999.0,0.0,25.38980103,1002.74914551,87.79576111,2.40625,3.65234375,-1.91796875,-0.17578125,16.03710938,-0.203125,4.0625,-43.0,-21.25,0.69018555,0.7210083,0.03326416,0.05200195,0.0,0.0,0.0,224.14160156,55.75694531,-3.71067871,224.14160156,0.0,0.0,0.0,71.67630783,0.0,0.0
C,No Message Received,686014.0,0.0,25.38980103,1001.62518311,97.23738861,2.828125,3.23046875,-1.265625,-0.13867188,15.99023438,-0.18945312,19.25,-42.6875,-12.1875,0.64703369,0.6651001,0.25280762,0.27410889,35.17582703,-76.82839203,8.60299969,233.58322906,55.5608049,-3.27802754,233.58322906,0.0,0.0,0.0,71.67630783,0.0,0.0
C,No Message Received,686051.0,0.0,25.38980103,1001.62518311,97.23738861,2.40625,3.92578125,-1.49609375,-0.2265625,15.84570312,-0.03710938,19.25,-42.6875,-12.1875,0.50244141,0.50445557,0.48364258,0.50915527,35.17582703,-76.82839203,8.59899998,233.58322906,55.05126078,-3.97346262,233.58322906,0.0,0.0,0.0,71.67630783,0.0,0.0
C,No Message Received,686090.0,0.0,25.38980103,1001.62518311,97.23738861,1.83203125,3.80859375,-2.1484375,-0.32617188,15.8671875,-0.046875,15.625,-42.375,13.5625,0.37695312,0.3682251,0.58630371,0.61523438,0.0,0.0,0.0,233.58322906,54.52091336,-3.80065197,233.58322906,0.0,0.0,0.0,71.67630783,0.0,0.0
C,No Message Received,686107.0,0.0,25.38980103,1001.62518311,97.23738861,2.59765625,3.2265625,-2.03125,-0.3671875,15.87890625,-0.11328125,13.875,-42.8125,15.6875,0.33074951,0.31817627,0.61309814,0.64300537,35.17582703,-76.82839203,8.59399986,233.58322906,54.30004655,-3.19416494,233.58322906,0.0,0.0,0.0,71.67630783,0.0,0.0
C,No Message Received,686140.0,0.0,25.39065552,1001.62524414,97.23687744,2.09765625,2.88671875,-2.26171875,-0.375,15.86914062,-0.18554688,0.8125,-41.4375,18.4375,0.28173828,0.26501465,0.63653564,0.66729736,0.0,0.0,0.0,233.5827179,53.88493871,-2.78102543,233.58322906,0.0,0.0,0.0,71.67630783,0.0,0.0
C,No Message Received,686156.0,0.0,25.39065552,1001.62524414,97.23687744,1.87109375,3.65234375,-2.109375,-0.34570312,15.87109375,-0.23046875,-2.0,-42.75,19.0,0.07385254,0.04034424,0.68847656,0.72039795,35.17583084,-76.82839203,8.58699989,233.5827179,53.67166584,-3.53155448,233.58322906,0.0,0.0,0.0,71.67630783,0.0,0.0
C,No Message Received,686191.0,0.0,25.39065552,1001.62524414,97.23687744,2.09765625,3.76953125,-2.30078125,-0.32226562,15.87890625,-0.26757812,-2.0,-42.75,19.0,0.02062988,-0.01702881,0.69091797,0.72241211,0.0,0.0,0.0,233.5827179,53.20245207,-3.60810778,233.58322906,0.0,0.0,0.0,71.67630783,0.0,0.0
C,No Message Received,686210.0,0.0,25.39065552,1001.62524414,97.23687744,2.17578125,3.84765625,-1.3046875,-0.27539062,15.8671875,-0.26953125,-2.0,-42.75,19.0,0.14001465,0.18939209,-0.67279053,-0.70135498,35.17583084,-76.82839203,8.57900047,233.5827179,52.94607048,-3.695768,233.58322906,0.0,0.0,0.0,71.67630783,0.0,0.0
C,No Message Received,686241.0,0.0,25.39065552,999.3973999,115.97607422,2.328125,3.34375,-1.11328125,-0.19335938,15.8125,-0.27539062,-2.0,-42.75,19.0,0.24279785,0.29882812,-0.63989258,-0.66503906,0.0,0.0,0.0,252.32191467,52.54320632,-3.19761811,252.32191467,0.0,0.0,0.0,71.67630783,0.0,0.0
C,No Message Received,686260.0,0.0,25.39065552,999.3973999,115.97607422,3.05859375,3.46484375,-1.3046875,-0.18945312,15.79882812,-0.26367188,-2.0,-42.75,19.0,0.3848877,0.4486084,-0.56115723,-0.57946777,35.17583466,-76.82839203,8.56900024,252.32191467,52.29431479,-3.30155404,252.32191467,0.0,0.0,0.0,71.67630783,0.0,0.0
C,No Message Received,686290.0,0.0,25.39065552,999.3973999,115.97607422,2.2890625,3.5703125,-0.9609375,-0.15625,15.68945312,-0.17773438,-2.0,-42.75,19.0,0.46734619,0.53466797,-0.49151611,-0.50408936,0.0,0.0,0.0,252.32191467,51.89526659,-3.50360667,252.32191467,0.0,0.0,0.0,71.67630783,0.0,0.0
C,No Message Received,686310.0,0.0,25.39065552,999.3973999,115.97607422,2.67578125,3.12109375,-1.07421875,-0.15429688,15.640625,-0.15429688,-2.0,-42.75,19.0,0.56866455,0.63787842,-0.3659668,-0.36846924,35.17583466,-76.82839203,8.53600025,252.32191467,51.63735901,-3.09737889,252.32191467,0.0,0.0,0.0,71.67630783,0.0,0.0
C,No Message Received,686339.0,0.0,25.38465881,999.39685059,115.98064423,1.79296875,3.65234375,-2.109375,-0.19921875,15.56640625,-0.109375,0.5,-42.0,-21.8125,0.61914062,0.68713379,-0.2713623,-0.26629639,0.0,0.0,0.0,252.32648468,51.24357381,-3.78080021,252.32648468,0.0,0.0,0.0,71.67630783,0.0,0.0
C,No Message Received,686355.0,0.0,25.38465881,999.39685059,115.98064423,3.09375,3.421875,-0.34765625,-0.22460938,15.53125,-0.10351562,2.9375,-45.375,-20.9375,0.67425537,0.73425293,-0.06561279,-0.04492188,35.17583466,-76.82839203,8.50199986,252.32648468,51.03129423,-3.4694738,252.32648468,0.0,0.0,0.0,71.67630783,0.0,0.0
C,No Message Received,686389.0,0.0,25.38465881,999.39685059,115.98064423,3.4375,2.9609375,-0.5,-0.25390625,15.54492188,-0.1328125,2.9375,-45.375,-20.9375,0.67797852,0.73486328,-0.0133667,0.01104736,0.0,0.0,0.0,252.32648468,50.59281264,-3.09851733,252.32648468,0.0,0.0,0.0,71.67630783,0.0,0.0
C,No Message Received,686409.0,0.0,25.38465881,999.39685059,115.98064423,2.4453125,3.3046875,-1.83984375,-0.30859375,15.52734375,-0.14648438,2.9375,-45.375,-20.9375,0.66583252,0.71008301,0.14385986,0.17840576,35.17583847,-76.82839203,8.46700001,252.32648468,50.32782976,-3.45114387,252.32648468,0.0,0.0,0.0,71.67630783,0.0,0.0
C,No Message Received,686439.0,0.0,25.38465881,997.20098877,134.48423767,3.09375,3.0,-1.83984375,-0.27148438,15.43164062,-0.18554688,19.375,-43.75,-1.3125,0.56793213,0.58441162,0.3862915,0.43212891,0.0,0.0,0.0,270.83007812,49.94024014,-3.12165411,270.83007812,0.0,0.0,0.0,71.67630783,0.0,0.0
C,No Message Received,686464.0,0.0,25.38465881,997.20098877,134.48423767,3.51953125,3.15234375,-1.49609375,-0.2578125,15.40820312,-0.17773438,19.75,-42.1875,3.9375,0.50439453,0.50909424,0.46862793,0.51654053,35.17583847,-76.82839203,8.43099976,270.83007812,49.6146195,-3.22682524,270.83007812,0.0,0.0,0.0,71.67630783,0.0,0.0
C,No Message Received,686496.0,0.0,25.38465881,997.20098877,134.48423767,2.51953125,3.5390625,-1.11328125,-0.24609375,15.27929688,-0.15625,19.75,-42.1875,3.9375,0.38751221,0.37487793,0.57067871,0.6194458,0.0,0.0,0.0,270.83007812,49.18864671,-3.51364969,270.83007812,0.0,0.0,0.0,71.67630783,0.0,0.0
C,No Message Received,686514.0,0.0,25.38465881,997.20098877,134.48423767,2.328125,3.65234375,-0.42578125,-0.234375,15.20898438,-0.15234375,9.9375,-42.625,15.8125,0.29846191,0.27471924,0.62182617,0.66992188,35.17583847,-76.82839203,8.39299965,270.83007812,48.94719445,-3.6160149,270.83007812,0.0,0.0,0.0,71.67630783,0.0,0.0
C,No Message Received,686549.0,0.0,25.38123322,997.20068359,134.48678589,2.59765625,3.46484375,-1.7265625,-0.28515625,15.16992188,-0.16015625,9.9375,-42.625,15.8125,0.25177002,0.22283936,0.6418457,0.68914795,0.0,0.0,0.0,270.83262634,48.48937394,-3.28258595,270.83262634,0.0,0.0,0.0,71.67630783,0.0,0.0
C,No Message Received,686580.0,0.0,25.38123322,997.20068359,134.48678589,2.328125,3.26953125,-1.34375,-0.2578125,15.14257812,-0.17578125,9.9375,-42.625,15.8125,0.10284424,0.059021,0.67999268,0.72357178,0.0,0.0,0.0,270.83262634,48.0902435,-3.07717532,270.83262634,0.0,0.0,0.0,71.67630783,0.0,0.0
C,No Message Received,686594.0,0.0,25.38123322,997.20068359,134.48678589,3.015625,2.734375,-1.8046875,-0.27734375,15.14257812,-0.18554688,9.9375,-42.625,15.8125,0.05084229,0.10754395,-0.68292236,-0.72076416,35.17584229,-76.82839203,8.38599968,270.83262634,47.91836685,-2.47890362,270.83262634,0.0,0.0,0.0,71.67630783,0.0,0.0
C,No Message Received,686619.0,0.0,25.38123322,997.20068359,134.48678589,2.0625,3.0,-0.69140625,-0.234375,15.14648438,-0.19726562,-16.125,-44.25,9.625,0.10119629,0.16156006,-0.67614746,-0.71166992,0.0,0.0,0.0,270.83262634,47.60267622,-2.82962526,270.83262634,0.0,0.0,0.0,71.67630783,0.0,0.0
C,No Message Received,686650.0,0.0,25.38123322,995.09906006,152.22689819,2.13671875,2.88671875,-1.3828125,-0.21484375,15.12695312,-0.203125,-16.125,-44.25,9.625,0.24932861,0.3190918,-0.63287354,-0.65997314,0.0,0.0,0.0,288.57273865,47.2135486,-2.7545038,288.57273865,0.0,0.0,0.0,71.67630783,0.0,0.0
C,No Message Received,686663.0,0.0,25.38123322,995.09906006,152.22689819,2.484375,3.421875,-1.3046875,-0.21875,15.09765625,-0.20703125,-16.125,-44.25,9.625,0.3838501,0.45983887,-0.55761719,-0.57470703,35.17584229,-76.82839966,8.37300014,288.57273865,47.04346825,-3.28510435,288.57273865,0.0,0.0,0.0,71.67630783,0.0,0.0
C,No Message Received,686689.0,0.0,25.38123322,995.09906006,152.22689819,1.6015625,3.00390625,-0.578125,-0.1875,15.0,-0.16796875,-16.125,-44.25,9.625,0.42492676,0.5022583,-0.52581787,-0.53918457,0.0,0.0,0.0,288.57273865,46.71228194,-2.93993479,288.57273865,0.0,0.0,0.0,71.67630783,0.0,0.0
C,No Message Received,686710.0,0.0,25.38123322,995.09906006,152.22689819,1.6796875,2.92578125,-0.578125,-0.20898438,14.93164062,-0.140625,-16.125,-44.25,9.625,0.53173828,0.61022949,-0.41448975,-0.41601562,35.17584229,-76.82839966,8.36699963,288.57273865,46.44571689,-2.89557399,288.57273865,0.0,0.0,0.0,71.67630783,0.0,0.0
C,No Message Received,686739.0,0.0,25.38123322,995.09906006,152.22689819,2.17578125,3.15234375,-0.84375,-0.23242188,14.90429688,-0.13867188,-5.5625,-43.875,-21.3125,0.58795166,0.66479492,-0.32910156,-0.32250977,0.0,0.0,0.0,288.57273865,46.06907901,-3.18951303,288.57273865,0.0,0.0,0.0,71.67630783,0.0,0.0
C,No Message Received,686760.0,0.0,25.38380432,995.0993042,152.22485352,1.984375,2.92578125,-0.76953125,-0.24414062,14.84960938,-0.12890625,-5.5625,-43.875,-21.3125,0.64776611,0.71838379,-0.18841553,-0.16986084,35.1758461,-76.82839966,8.35999966,288.57069397,45.80038333,-2.99703241,288.57273865,0.0,0.0,0.0,71.67630783,0.0,0.0
C,No Message Received,686789.0,0.0,25.38380432,995.0993042,152.22485352,3.28125,2.88671875,-1.3828125,-0.26367188,14.80078125,-0.13476562,8.0625,-45.5625,-18.8125,0.66998291,0.73425293,-0.08929443,-0.06323242,0.0,0.0,0.0,288.57069397,45.42721134,-3.06999977,288.57273865,0.0,0.0,0.0,71.67630783,0.0,0.0
C,No Message Received,686809.0,0.0,25.38380432,995.0993042,152.22485352,3.51953125,2.6171875,-0.42578125,-0.25,14.7890625,-0.16796875,8.0625,-45.5625,-18.8125,0.67584229,0.7277832,0.06213379,0.0982666,35.1758461,-76.82839966,8.35400009,288.57069397,45.1755078,-2.78717675,288.57273865,0.0,0.0,0.0,71.67630783,0.0,0.0
C,No Message Received,686839.0,0.0,25.38380432,995.0993042,152.22485352,1.296875,2.734375,-1.3828125,-0.2578125,14.79101562,-0.20898438,8.0625,-45.5625,-18.8125,0.66137695,0.70373535,0.16149902,0.20330811,0.0,0.0,0.0,288.57069397,44.79745339,-2.80381369,288.57273865,0.0,0.0,0.0,71.67630783,0.0,0.0
C,No Message Received,686859.0,0.0,25.38380432,993.02783203,169.74028015,1.75390625,3.23046875,-1.03515625,-0.22070312,14.7421875,-0.21875,8.0625,-45.5625,-18.8125,0.61309814,0.63885498,0.30383301,0.35162354,35.1758461,-76.82839966,8.34700012,306.08612061,44.53565031,-3.2921539,306.08612061,0.0,0.0,0.0,71.67630783,0.0,0.0
C,No Message Received,686888.0,0.0,25.38380432,993.02783203,169.74028015,0.98828125,3.04296875,-1.99609375,-0.18945312,14.7265625,-0.22851562,17.5625,-41.5,9.125,0.56427002,0.57818604,0.39105225,0.44085693,0.0,0.0,0.0,306.08612061,44.16440697,-3.0034947,306.08612061,0.0,0.0,0.0,71.67630783,0.0,0.0
C,No Message Received,686910.0,0.0,25.38380432,993.02783203,169.74028015,1.75390625,3.30859375,-1.6484375,-0.1640625,14.6953125,-0.20117188,17.5625,-41.5,9.125,0.46813965,0.4644165,0.5057373,0.55615234,35.1758461,-76.82839966,8.3409996,306.08612061,43.87722799,-3.25558985,306.08612061,0.0,0.0,0.0,71.67630783,0.0,0.0
C,No Message Received,686939.0,0.0,25.38380432,993.02783203,169.74028015,2.13671875,2.921875,-1.99609375,-0.18164062,14.66210938,-0.171875,6.125,-42.375,18.6875,0.39129639,0.37640381,0.56878662,0.61779785,0.0,0.0,0.0,306.08612061,43.51198067,-2.7967353,306.08612061,0.0,0.0,0.0,71.67630783,0.0,0.0
C,No Message Received,686959.0,0.0,25.37552643,993.02703857,169.74693298,2.8671875,3.1171875,-2.22265625,-0.1953125,14.56835938,-0.13085938,6.125,-42.375,18.6875,0.26037598,0.2300415,0.64007568,0.6852417,35.1758461,-76.82839966,8.33399963,306.09277344,43.25742071,-2.92999762,306.09277344,0.0,0.0,0.0,71.67630783,0.0,0.0
C,No Message Received,686989.0,0.0,25.37552643,993.02703857,169.74693298,2.328125,2.65625,-1.49609375,-0.24414062,14.4921875,-0.08398438,-7.9375,-44.25,16.875,0.0300293,0.08355713,-0.68725586,-0.72094727,0.0,0.0,0.0,306.09277344,42.88893064,-2.48500236,306.09277344,0.0,0.0,0.0,71.67630783,0.0,0.0
C,No Message Received,687023.0,0.0,25.37552643,993.02703857,169.74693298,1.44921875,3.15234375,-1.91796875,-0.25585938,14.48242188,-0.09570312,-15.375,-43.8125,10.5,0.12811279,0.18688965,-0.67388916,-0.70318604,35.17584991,-76.82839966,8.32699966,306.09277344,42.45301784,-3.02296478,306.09277344,0.0,0.0,0.0,71.67630783,0.0,0.0
C,No Message Received,687053.0,0.0,25.37552643,993.02703857,169.74693298,1.5234375,2.6171875,-1.45703125,-0.25585938,14.44140625,-0.13476562,-15.375,-43.8125,10.5,0.27246094,0.33746338,-0.62628174,-0.64782715,0.0,0.0,0.0,306.09277344,42.08366946,-2.51361279,306.09277344,0.0,0.0,0.0,71.67630783,0.0,0.0
C,No Message Received,687066.0,0.0,25.37552643,990.97064209,187.16448975,1.9453125,2.62109375,-0.65234375,-0.2421875,14.42773438,-0.15820312,-19.5,-44.4375,0.8125,0.3135376,0.38000488,-0.60571289,-0.62481689,35.17584991,-76.82839966,8.35200024,323.5103302,41.92394328,-2.48862925,323.5103302,0.0,0.0,0.0,71.67630783,0.0,0.0
C,No Message Received,687100.0,0.0,25.37552643,990.97064209,187.16448975,2.7109375,2.6171875,-0.9609375,-0.21679688,14.38671875,-0.18359375,-19.5,-44.4375,0.8125,0.35662842,0.42431641,-0.58032227,-0.59667969,0.0,0.0,0.0,323.5103302,41.50636013,-2.48385732,323.5103302,0.0,0.0,0.0,71.67630783,0.0,0.0
C,No Message Received,687113.0,0.0,25.37552643,990.97064209,187.16448975,2.328125,2.6953125,-0.73046875,-0.1875,14.38476562,-0.1796875,-16.3125,-44.3125,-13.625,0.53771973,0.60742188,-0.41265869,-0.41424561,35.17584991,-76.82839966,8.3760004,323.5103302,41.34522756,-2.59681276,323.5103302,0.0,0.0,0.0,71.67630783,0.0,0.0
C,No Message Received,687154.0,0.0,25.37552643,990.97064209,187.16448975,3.1328125,2.42578125,-1.6875,-0.1796875,14.30273438,-0.15429688,-8.0,-44.0,-20.75,0.61401367,0.68109131,-0.28601074,-0.27807617,0.0,0.0,0.0,323.5103302,40.84287057,-2.45460961,323.5103302,0.0,0.0,0.0,71.67630783,0.0,0.0
C,No Message Received,687174.0,0.0,25.37580872,990.97064209,187.16448975,1.41015625,2.69921875,-0.34765625,-0.16601562,14.28515625,-0.14648438,-0.6875,-45.5625,-22.25,0.64923096,0.71295166,-0.19439697,-0.17999268,35.17585373,-76.82839966,8.40200043,323.5103302,40.59281665,-2.70469579,323.5103302,0.0,0.0,0.0,71.67630783,0.0,0.0
C,No Message Received,687211.0,0.0,25.37580872,990.97064209,187.16448975,1.140625,2.35546875,-0.078125,-0.1953125,14.29101562,-0.14453125,8.0625,-43.25,-19.9375,0.67974854,0.73303223,-0.00177002,0.0246582,35.17585373,-76.82839966,8.42800045,323.5103302,40.14225858,-2.37924529,323.5103302,0.0,0.0,0.0,71.67630783,0.0,0.0
C,No Message Received,687249.0,0.0,25.37580872,990.97064209,187.16448975,1.9453125,2.6953125,-0.6171875,-0.19335938,14.27929688,-0.16601562,17.125,-43.875,-11.625,0.67895508,0.7286377,0.04754639,0.07672119,0.0,0.0,0.0,323.5103302,39.66385688,-2.79151823,323.5103302,0.0,0.0,0.0,71.67630783,0.0,0.0
C,No Message Received,687263.0,0.0,25.37580872,989.03820801,203.55857849,2.328125,2.6171875,-1.0,-0.22460938,14.28320312,-0.16796875,19.3125,-44.1875,-9.5625,0.64019775,0.67327881,0.24176025,0.27990723,35.17585373,-76.82839966,8.47799969,339.90441895,39.48833828,-2.73904304,339.90441895,0.0,0.0,0.0,71.67630783,0.0,0.0
C,No Message Received,687298.0,0.0,25.37580872,989.03820801,203.55857849,2.55859375,2.65625,-0.65234375,-0.19140625,14.23828125,-0.16601562,19.3125,-44.1875,-9.5625,0.55249023,0.5668335,0.40979004,0.45343018,0.0,0.0,0.0,339.90441895,39.04886975,-2.75824375,339.90441895,0.0,0.0,0.0,71.67630783,0.0,0.0
C,No Message Received,687313.0,0.0,25.37580872,989.03820801,203.55857849,1.71484375,2.3125,-1.45703125,-0.20703125,14.21484375,-0.15820312,19.5,-40.1875,4.6875,0.52075195,0.52984619,0.45050049,0.49511719,35.17585373,-76.82839966,8.52499962,339.90441895,38.86666102,-2.34924864,339.90441895,0.0,0.0,0.0,71.67630783,0.0,0.0
C,No Message Received,687340.0,0.0,25.37580872,989.03820801,203.55857849,1.1015625,2.92578125,-1.57421875,-0.19726562,14.13671875,-0.12695312,15.5625,-42.75,13.125,0.41888428,0.41345215,0.54827881,0.59411621,0.0,0.0,0.0,339.90441895,38.52395367,-2.89486491,339.90441895,0.0,0.0,0.0,71.67630783,0.0,0.0
C,No Message Received,687363.0,0.0,25.37866974,989.03845215,203.55653381,1.140625,2.69921875,-0.8828125,-0.18554688,14.09960938,-0.14453125,11.375,-43.3125,16.3125,0.33935547,0.32446289,0.60107422,0.64672852,35.17585373,-76.82839966,8.5710001,339.90237427,38.23727638,-2.66622988,339.90441895,0.0,0.0,0.0,71.67630783,0.0,0.0
C,No Message Received,687394.0,0.0,25.37866974,989.03845215,203.55653381,1.44921875,2.76953125,-0.76953125,-0.16210938,14.07617188,-0.13085938,11.375,-43.3125,16.3125,0.2086792,0.18041992,0.65753174,0.70111084,0.0,0.0,0.0,339.90237427,37.84967003,-2.70543073,339.90441895,0.0,0.0,0.0,71.67630783,0.0,0.0
C,No Message Received,687414.0,0.0,25.37866974,989.03845215,203.55653381,1.33203125,2.421875,-2.22265625,-0.17382812,14.015625,-0.12695312,11.375,-43.3125,16.3125,0.11523438,0.07879639,0.67944336,0.72033691,35.17585373,-76.82839966,8.61800003,339.90237427,37.60814884,-2.2780594,339.90441895,0.0,0.0,0.0,71.67630783,0.0,0.0
C,No Message Received,687449.0,0.0,25.37866974,989.03845215,203.55653381,2.40625,2.66015625,-1.265625,-0.17578125,13.95507812,-0.11328125,11.375,-43.3125,16.3125,0.07440186,0.12463379,-0.68267822,-0.71618652,0.0,0.0,0.0,339.90237427,37.17812102,-2.48850927,339.90441895,0.0,0.0,0.0,71.67630783,0.0,0.0
C,No Message Received,687465.0,0.0,25.37866974,987.15997314,219.5174408,1.296875,2.65625,-1.7265625,-0.17773438,13.92773438,-0.1171875,11.375,-43.3125,16.3125,0.12084961,0.17388916,-0.67523193,-0.70654297,35.17585373,-76.82839966,8.66399956,355.86328125,36.98072454,-2.53927998,355.86328125,0.0,0.0,0.0,71.67630783,0.0,0.0
C,No Message Received,687499.0,0.0,25.37866974,987.15997314,219.5174408,2.40625,2.6171875,-0.80859375,-0.17578125,13.875,-0.13476562,11.375,-43.3125,16.3125,0.1675415,0.22320557,-0.66442871,-0.69329834,0.0,0.0,0.0,355.86328125,36.56426925,-2.45068473,355.86328125,0.0,0.0,0.0,71.67630783,0.0,0.0
C,No Message Received,687512.0,0.0,25.37866974,987.15997314,219.5174408,1.37109375,2.73828125,-1.03515625,-0.171875,13.84375,-0.12304688,11.375,-43.3125,16.3125,0.30065918,0.36260986,-0.61315918,-0.63415527,35.17585754,-76.82839966,8.71100044,355.86328125,36.40237651,-2.65528805,355.86328125,0.0,0.0,0.0,71.67630783,0.0,0.0
C,No Message Received,687541.0,0.0,25.37866974,987.15997314,219.5174408,1.6796875,2.5390625,-1.87890625,-0.16601562,13.76757812,-0.10742188,11.375,-43.3125,16.3125,0.45562744,0.52172852,-0.50537109,-0.5145874,0.0,0.0,0.0,355.86328125,36.04565628,-2.50269769,355.86328125,0.0,0.0,0.0,71.67630783,0.0,0.0
C,No Message Received,687580.0,0.0,25.37552643,987.15966797,219.52001953,1.48828125,2.23828125,-0.578125,-0.11523438,13.63671875,-0.09765625,-18.375,-47.5,-10.375,0.5758667,0.64129639,-0.36053467,-0.35650635,0.0,0.0,0.0,355.86585999,35.57728273,-2.21157824,355.86585999,0.0,0.0,0.0,71.67630783,0.0,0.0
C,No Message Received,687593.0,0.0,25.37552643,987.15966797,219.52001953,2.25390625,2.58203125,-2.0703125,-0.14257812,13.60742188,-0.10351562,-18.375,-47.5,-10.375,0.60021973,0.66479492,-0.31817627,-0.31066895,35.17585754,-76.82839966,8.75800037,355.86585999,35.41551623,-2.64557696,355.86585999,0.0,0.0,0.0,71.67630783,0.0,0.0
