state_name,received_message,timestamp,voltage,ambientTemperature,ambientPressure,pressureAlt,estCompensatedAccelX,estCompensatedAccelY,estCompensatedAccelZ,estAngularRateX,estAngularRateY,estAngularRateZ,magneticFieldX,magneticFieldY,magneticFieldZ,estOrientQuaternionW,estOrientQuaternionX,estOrientQuaternionY,estOrientQuaternionZ,gpsLatitude,gpsLongitude,gpsAltitude,current_altitude,vertical_velocity,vertical_acceleration,maximum_altitude,pitch,roll,yaw,maximum_velocity,landing_velocity,crew_survivability
S,No Message Received,179627.0,0.0,14.80137634,1029.18933105,-131.86828613,0.14453125,-9.5625,0.3046875,0.0,0.0,0.0,-21.9375,-47.3125,8.8125,0.39624023,0.42077637,-0.58764648,-0.56622314,0.0,0.0,0.0,-0.33465576,0.0,9.5671507,0.0337677,0.0,0.0,0.0,0.0,0.0,0.0
S,No Message Received,179647.0,0.0,14.80137634,1029.18933105,-131.86828613,0.14453125,-9.56640625,0.37890625,0.0,0.0,0.0,-21.625,-47.75,9.625,0.39624023,0.42077637,-0.58764648,-0.56622314,35.17577362,-76.82828522,-6.82399988,-0.33465576,0.0,9.5746125,0.0337677,0.0,0.0,0.0,0.0,0.0,0.0
S,No Message Received,179684.0,0.0,14.81251526,1029.19042969,-131.87721252,0.18359375,-9.56640625,0.37890625,0.0,0.0,0.0,-21.625,-47.75,9.625,0.39624023,0.42077637,-0.58764648,-0.56622314,0.0,0.0,0.0,-0.34358215,0.0,9.57507923,0.0337677,0.0,0.0,0.0,0.0,0.0,0.0
S,No Message Received,179697.0,0.0,14.81251526,1029.19042969,-131.87721252,0.14453125,-9.56640625,0.41796875,0.0,0.0,0.0,-21.625,-47.75,9.625,0.39624023,0.42077637,-0.58764648,-0.56622314,35.17577362,-76.82828522,-6.77799988,-0.34358215,0.0,9.57648635,0.0337677,0.0,0.0,0.0,0.0,0.0,0.0
S,No Message Received,179723.0,0.0,14.81251526,1029.19042969,-131.87721252,0.03125,-9.56640625,0.53515625,0.0,0.0,0.0,-21.625,-47.75,9.625,0.39624023,0.42077637,-0.58764648,-0.56622314,0.0,0.0,0.0,-0.34358215,0.0,9.58075438,0.0337677,0.0,0.0,0.0,0.0,0.0,0.0
S,No Message Received,179753.0,0.0,14.81251526,1029.19042969,-131.87721252,0.0703125,-9.5625,0.49609375,0.0,0.0,0.0,-21.625,-47.75,9.625,0.39624023,0.42077637,-0.58764648,-0.56622314,0.0,0.0,0.0,-0.34358215,0.0,9.57544579,0.0337677,0.0,0.0,0.0,0.0,0.0,0.0
S,No Message Received,179778.0,0.0,14.81251526,1029.19042969,-131.87721252,0.03125,-9.56640625,0.49609375,0.0,0.0,0.0,-21.9375,-47.75,9.25,0.39624023,0.42077637,-0.58764648,-0.56628418,35.17577362,-76.82828522,-6.69299984,-0.34358215,0.0,9.57888053,0.0337677,0.0,0.0,0.0,0.0,0.0,0.0
S,No Message Received,179813.0,0.0,14.81251526,1029.1887207,-131.86331177,0.03125,-9.56640625,0.45703125,0.0,0.0,0.0,-21.9375,-47.75,9.25,0.39624023,0.42077637,-0.58764648,-0.56628418,0.0,0.0,0.0,-0.3296814,0.0,9.57700668,0.0337677,0.0,0.0,0.0,0.0,0.0,0.0
S,No Message Received,179838.0,0.0,14.81251526,1029.1887207,-131.86331177,-0.0078125,-9.5234375,0.37890625,0.0,0.0,0.0,-20.8125,-47.875,11.125,0.39624023,0.42077637,-0.58764648,-0.56628418,35.17577362,-76.82828522,-6.76900005,-0.3296814,0.0,9.52987603,0.0337677,0.0,0.0,0.0,0.0,0.0,0.0
S,No Message Received,179872.0,0.0,14.81251526,1029.1887207,-131.86331177,0.109375,-9.60546875,0.41796875,0.0,0.0,0.0,-20.8125,-47.875,11.125,0.39624023,0.42077637,-0.58764648,-0.56622314,0.0,0.0,0.0,-0.3296814,0.0,9.61508103,0.0337677,0.0,0.0,0.0,0.0,0.0,0.0
S,No Message Received,179897.0,0.0,14.81251526,1029.1887207,-131.86331177,0.14453125,-9.56640625,0.37890625,0.0,0.0,0.0,-20.5625,-44.5,9.625,0.39624023,0.42077637,-0.58764648,-0.56622314,35.17577362,-76.82828522,-6.77299976,-0.3296814,0.0,9.5746125,0.0337677,0.0,0.0,0.0,0.0,0.0,0.0
S,No Message Received,179931.0,0.0,14.81251526,1029.1887207,-131.86331177,0.109375,-9.56640625,0.41796875,0.0,0.0,0.0,-20.5625,-44.5,9.625,0.39624023,0.42077637,-0.58764648,-0.56622314,0.0,0.0,0.0,-0.3296814,0.0,9.57606629,0.0337677,0.0,0.0,0.0,0.0,0.0,0.0
S,No Message Received,179947.0,0.0,14.81251526,1029.1887207,-131.86331177,0.109375,-9.56640625,0.41796875,0.0,0.0,0.0,-22.5,-49.875,9.8125,0.39624023,0.42071533,-0.58770752,-0.56622314,35.17577744,-76.82828522,-7.01499987,-0.3296814,0.0,9.57606629,0.0337677,0.0,0.0,0.0,0.0,0.0,0.0
S,No Message Received,179977.0,0.0,14.81251526,1029.1887207,-131.86331177,0.18359375,-9.5234375,0.41796875,0.0,0.0,0.0,-21.625,-47.75,9.625,0.39624023,0.42071533,-0.58770752,-0.56622314,0.0,0.0,0.0,-0.3296814,0.0,9.53403687,0.0337677,0.0,0.0,0.0,0.0,0.0,0.0
S,No Message Received,179996.0,0.0,14.81251526,1029.1895752,-131.87026978,0.22265625,-9.5625,0.41796875,0.0,0.0,0.0,-22.3125,-48.625,10.0,0.39624023,0.42071533,-0.58770752,-0.56616211,35.17577744,-76.82828522,-7.02199984,-0.3366394,0.0,9.57351834,0.0337677,0.0,0.0,0.0,0.0,0.0,0.0
S,No Message Received,180032.0,0.0,14.81251526,1029.1895752,-131.87026978,0.14453125,-9.56640625,0.37890625,0.0,0.0,0.0,-21.5,-46.5,9.4375,0.39624023,0.42071533,-0.58770752,-0.56616211,0.0,0.0,0.0,-0.3366394,0.0,9.5746125,0.0337677,0.0,0.0,0.0,0.0,0.0,0.0
S,No Message Received,180048.0,0.0,14.81251526,1029.1895752,-131.87026978,0.109375,-9.56640625,0.41796875,0.0,0.0,0.0,-22.9375,-48.375,10.3125,0.39624023,0.42071533,-0.58770752,-0.56616211,35.17577744,-76.82828522,-7.12699986,-0.3366394,0.0,9.57606629,0.0337677,0.0,0.0,0.0,0.0,0.0,0.0
S,No Message Received,180083.0,0.0,14.81251526,1029.1895752,-131.87026978,0.03125,-9.60546875,0.37890625,0.0,0.0,0.0,-22.9375,-48.375,10.3125,0.39624023,0.42071533,-0.58770752,-0.56616211,0.0,0.0,0.0,-0.3366394,0.0,9.61227371,0.0337677,0.0,0.0,0.0,0.0,0.0,0.0
S,No Message Received,180096.0,0.0,14.82106781,1029.19042969,-131.87721252,0.0703125,-9.6015625,0.41796875,0.0,0.0,0.0,-21.8125,-47.5625,10.625,0.39624023,0.42071533,-0.58770752,-0.56622314,35.17577744,-76.82828522,-7.204,-0.34358215,0.0,9.61071282,0.0337677,0.0,0.0,0.0,0.0,0.0,0.0
S,No Message Received,180132.0,0.0,14.82106781,1029.19042969,-131.87721252,-0.0078125,-9.56640625,0.41796875,0.0,0.0,0.0,-21.875,-48.3125,10.6875,0.3961792,0.42077637,-0.58770752,-0.56622314,0.0,0.0,0.0,-0.34358215,0.0,9.57466609,0.0337677,0.0,0.0,0.0,0.0,0.0,0.0
S,No Message Received,180147.0,0.0,14.82106781,1029.19042969,-131.87721252,0.03125,-9.56640625,0.49609375,0.0,0.0,0.0,-21.8125,-46.5625,9.4375,0.3961792,0.42077637,-0.58770752,-0.56622314,35.17577744,-76.82828522,-7.24800014,-0.34358215,0.0,9.57888053,0.0337677,0.0,0.0,0.0,0.0,0.0,0.0
S,No Message Received,180172.0,0.0,14.82106781,1029.19042969,-131.87721252,0.03125,-9.56640625,0.37890625,0.0,0.0,0.0,-22.25,-47.5,9.875,0.3961792,0.42077637,-0.58770752,-0.56622314,0.0,0.0,0.0,-0.34358215,0.0,9.57325897,0.0337677,0.0,0.0,0.0,0.0,0.0,0.0
S,No Message Received,180193.0,0.0,14.82106781,1029.19042969,-131.87721252,0.0703125,-9.5625,0.41796875,0.0,0.0,0.0,-22.25,-47.5,9.875,0.3961792,0.42077637,-0.58770752,-0.56622314,35.17577744,-76.82828522,-7.3130002,-0.34358215,0.0,9.57169808,0.0337677,0.0,0.0,0.0,0.0,0.0,0.0
S,No Message Received,180224.0,0.0,14.82106781,1029.19042969,-131.87721252,0.14453125,-9.56640625,0.41796875,0.0,0.0,0.0,-22.25,-47.5,9.875,0.3961792,0.42077637,-0.58770752,-0.56622314,0.0,0.0,0.0,-0.34358215,0.0,9.57648635,0.0337677,0.0,0.0,0.0,0.0,0.0,0.0
S,No Message Received,180244.0,0.0,14.82106781,1029.19042969,-131.87721252,0.109375,-9.56640625,0.41796875,0.0,0.0,0.0,-22.25,-47.5,9.875,0.3961792,0.42077637,-0.58770752,-0.56616211,35.17577744,-76.82828522,-7.41499996,-0.34358215,0.0,9.57606629,0.0337677,0.0,0.0,0.0,0.0,0.0,0.0
S,No Message Received,180275.0,0.0,14.82106781,1029.19042969,-131.87721252,0.109375,-9.56640625,0.45703125,0.0,0.0,0.0,-22.25,-47.5,9.875,0.39624023,0.42077637,-0.58770752,-0.56616211,0.0,0.0,0.0,-0.34358215,0.0,9.57794014,0.0337677,0.0,0.0,0.0,0.0,0.0,0.0
S,No Message Received,180292.0,0.0,14.82106781,1029.19042969,-131.87721252,0.109375,-9.60546875,0.41796875,0.0,0.0,0.0,-21.0625,-46.625,10.5625,0.39624023,0.42071533,-0.58770752,-0.56616211,35.17577744,-76.82828522,-7.45800018,-0.34358215,0.0,9.61508103,0.0337677,0.0,0.0,0.0,0.0,0.0,0.0
S,No Message Received,180323.0,0.0,14.81593323,1029.18981934,-131.87225342,0.14453125,-9.56640625,0.37890625,0.0,0.0,0.0,-21.0625,-46.625,10.5625,0.39624023,0.42071533,-0.58770752,-0.56616211,0.0,0.0,0.0,-0.33862305,0.0,9.5746125,0.0337677,0.0,0.0,0.0,0.0,0.0,0.0
S,No Message Received,180345.0,0.0,14.81593323,1029.18981934,-131.87225342,0.109375,-9.56640625,0.37890625,0.0,0.0,0.0,-21.9375,-48.1875,10.0,0.39624023,0.42071533,-0.58776855,-0.56616211,35.17577744,-76.82828522,-7.54899979,-0.33862305,0.0,9.57419244,0.0337677,0.0,0.0,0.0,0.0,0.0,0.0
S,No Message Received,180394.0,0.0,14.81593323,1029.18981934,-131.87225342,0.109375,-9.5234375,0.37890625,0.0,0.0,0.0,-22.875,-47.125,9.75,0.39624023,0.42071533,-0.58776855,-0.56616211,35.17577744,-76.82828522,-7.70800018,-0.33862305,0.0,9.53127623,0.0337677,0.0,0.0,0.0,0.0,0.0,0.0
S,No Message Received,180424.0,0.0,14.81593323,1029.18505859,-131.83352661,0.18359375,-9.56640625,0.37890625,0.0,0.0,0.0,-22.875,-47.125,9.75,0.39624023,0.42071533,-0.58770752,-0.56616211,0.0,0.0,0.0,-0.29989624,0.0,9.57507923,0.0337677,0.0,0.0,0.0,0.0,0.0,0.0
S,No Message Received,180444.0,0.0,14.81593323,1029.18505859,-131.83352661,0.109375,-9.56640625,0.41796875,0.0,0.0,0.0,-22.875,-47.125,9.75,0.39624023,0.42071533,-0.58770752,-0.56616211,35.17578125,-76.82828522,-7.87799978,-0.29989624,0.0,9.57606629,0.0337677,0.0,0.0,0.0,0.0,0.0,0.0
S,No Message Received,180472.0,0.0,14.81593323,1029.18505859,-131.83352661,0.0703125,-9.5625,0.41796875,0.0,0.0,0.0,-22.875,-47.125,9.75,0.39624023,0.42071533,-0.58770752,-0.56616211,0.0,0.0,0.0,-0.29989624,0.0,9.57169808,0.0337677,0.0,0.0,0.0,0.0,0.0,0.0
S,No Message Received,180492.0,0.0,14.81593323,1029.18505859,-131.83352661,0.03125,-9.60546875,0.41796875,0.0,0.0,0.0,-22.875,-47.125,9.75,0.39624023,0.42071533,-0.58770752,-0.56622314,35.17578125,-76.82828522,-7.9289999,-0.29989624,0.0,9.61414756,0.0337677,0.0,0.0,0.0,0.0,0.0,0.0
S,No Message Received,180523.0,0.0,14.82106781,1029.18554688,-131.8374939,0.0703125,-9.5625,0.49609375,0.0,0.0,0.0,-22.875,-47.125,9.75,0.3961792,0.42071533,-0.58770752,-0.56622314,0.0,0.0,0.0,-0.30386353,0.0,9.57544579,0.0337677,0.0,0.0,0.0,0.0,0.0,0.0
S,No Message Received,180543.0,0.0,14.82106781,1029.18554688,-131.8374939,0.0703125,-9.5625,0.49609375,0.0,0.0,0.0,-22.875,-47.125,9.75,0.3961792,0.42071533,-0.58770752,-0.56622314,35.17578125,-76.82828522,-7.96199989,-0.30386353,0.0,9.57544579,0.0337677,0.0,0.0,0.0,0.0,0.0,0.0
S,No Message Received,180573.0,0.0,14.82106781,1029.18554688,-131.8374939,0.109375,-9.56640625,0.41796875,0.0,0.0,0.0,-22.875,-47.125,9.75,0.3961792,0.42071533,-0.58770752,-0.56622314,0.0,0.0,0.0,-0.30386353,0.0,9.57606629,0.0337677,0.0,0.0,0.0,0.0,0.0,0.0
S,No Message Received,180594.0,0.0,14.82106781,1029.18554688,-131.8374939,0.0703125,-9.5625,0.41796875,0.0,0.0,0.0,-22.875,-47.125,9.75,0.3961792,0.42071533,-0.58770752,-0.56622314,35.17578125,-76.82828522,-7.98000002,-0.30386353,0.0,9.57169808,0.0337677,0.0,0.0,0.0,0.0,0.0,0.0
S,No Message Received,180623.0,0.0,14.82106781,1029.18310547,-131.81764221,0.109375,-9.5234375,0.45703125,0.0,0.0,0.0,-22.875,-47.125,9.75,0.3961792,0.42071533,-0.58770752,-0.56622314,0.0,0.0,0.0,-0.28401184,0.0,9.53502393,0.0337677,0.0,0.0,0.0,0.0,0.0,0.0
S,No Message Received,180643.0,0.0,14.82106781,1029.18310547,-131.81764221,0.0703125,-9.52734375,0.45703125,0.0,0.0,0.0,-22.875,-47.125,9.75,0.3961792,0.42071533,-0.58770752,-0.56622314,35.17578125,-76.82828522,-7.97300005,-0.28401184,0.0,9.53845867,0.0337677,0.0,0.0,0.0,0.0,0.0,0.0
S,No Message Received,180673.0,0.0,14.82106781,1029.18310547,-131.81764221,0.14453125,-9.56640625,0.41796875,0.0,0.0,0.0,-22.875,-47.125,9.75,0.39624023,0.42071533,-0.58770752,-0.56622314,0.0,0.0,0.0,-0.28401184,0.0,9.57648635,0.0337677,0.0,0.0,0.0,0.0,0.0,0.0
S,No Message Received,180693.0,0.0,14.82106781,1029.18310547,-131.81764221,0.0703125,-9.6015625,0.41796875,0.0,0.0,0.0,-22.875,-47.125,9.75,0.39624023,0.4206543,-0.58770752,-0.56622314,35.17578125,-76.82828522,-7.96299982,-0.28401184,0.0,9.61071282,0.0337677,0.0,0.0,0.0,0.0,0.0,0.0
S,No Message Received,180723.0,0.0,14.82535553,1029.18347168,-131.82061768,0.14453125,-9.56640625,0.37890625,0.0,0.0,0.0,-22.875,-47.125,9.75,0.39624023,0.4206543,-0.58770752,-0.56622314,0.0,0.0,0.0,-0.2869873,0.0,9.5746125,0.0337677,0.0,0.0,0.0,0.0,0.0,0.0
S,No Message Received,180752.0,0.0,14.82535553,1029.18347168,-131.82061768,0.0703125,-9.5625,0.37890625,0.0,0.0,0.0,-22.875,-47.125,9.75,0.39624023,0.4206543,-0.58770752,-0.56622314,0.0,0.0,0.0,-0.2869873,0.0,9.56982423,0.0337677,0.0,0.0,0.0,0.0,0.0,0.0
S,No Message Received,180772.0,0.0,14.82535553,1029.18347168,-131.82061768,0.14453125,-9.60546875,0.34375,0.0,0.0,0.0,-22.875,-47.125,9.75,0.39624023,0.4206543,-0.58770752,-0.56622314,35.17578125,-76.82828522,-7.94700003,-0.2869873,0.0,9.61194077,0.0337677,0.0,0.0,0.0,0.0,0.0,0.0
S,No Message Received,180802.0,0.0,14.82535553,1029.18347168,-131.82061768,0.18359375,-9.5234375,0.41796875,0.0,0.0,0.0,-22.875,-47.125,9.75,0.39624023,0.4206543,-0.58770752,-0.56628418,0.0,0.0,0.0,-0.2869873,0.0,9.53403687,0.0337677,0.0,0.0,0.0,0.0,0.0,0.0
S,No Message Received,180832.0,0.0,14.82535553,1029.18823242,-131.85934448,0.03125,-9.56640625,0.41796875,0.0,0.0,0.0,-22.875,-47.125,9.75,0.39624023,0.4206543,-0.58770752,-0.56628418,0.0,0.0,0.0,-0.32571411,0.0,9.57513283,0.0337677,0.0,0.0,0.0,0.0,0.0,0.0
S,No Message Received,180845.0,0.0,14.82535553,1029.18823242,-131.85934448,0.0703125,-9.5625,0.45703125,0.0,0.0,0.0,-21.1875,-47.3125,9.5625,0.39624023,0.4206543,-0.58770752,-0.56628418,35.17578125,-76.82828522,-7.8920002,-0.32571411,0.0,9.57357194,0.0337677,0.0,0.0,0.0,0.0,0.0,0.0
S,No Message Received,180875.0,0.0,14.82535553,1029.18823242,-131.85934448,0.0703125,-9.5625,0.41796875,0.0,0.0,0.0,-21.1875,-47.3125,9.5625,0.39624023,0.4206543,-0.58770752,-0.56628418,0.0,0.0,0.0,-0.32571411,0.0,9.57169808,0.0337677,0.0,0.0,0.0,0.0,0.0,0.0
S,No Message Received,180892.0,0.0,14.82535553,1029.18823242,-131.85934448,0.109375,-9.56640625,0.41796875,0.0,0.0,0.0,-21.1875,-47.3125,9.5625,0.39624023,0.4206543,-0.58764648,-0.56628418,35.17578125,-76.82828522,-7.87300014,-0.32571411,0.0,9.57606629,0.0337677,0.0,0.0,0.0,0.0,0.0,0.0
S,No Message Received,180922.0,0.0,14.82535553,1029.18823242,-131.85934448,0.109375,-9.56640625,0.41796875,0.0,0.0,0.0,-21.1875,-47.3125,9.5625,0.39624023,0.42059326,-0.58764648,-0.56634521,0.0,0.0,0.0,-0.32571411,0.0,9.57606629,0.0337677,0.0,0.0,0.0,0.0,0.0,0.0
S,No Message Received,180941.0,0.0,14.82250214,1029.18786621,-131.85636902,0.0703125,-9.5625,0.37890625,0.0,0.0,0.0,-21.1875,-47.3125,9.5625,0.39624023,0.42059326,-0.58764648,-0.56634521,35.17578125,-76.82828522,-7.90399981,-0.32273865,0.0,9.56982423,0.0337677,0.0,0.0,0.0,0.0,0.0,0.0
S,No Message Received,180972.0,0.0,14.82250214,1029.18786621,-131.85636902,0.03125,-9.60546875,0.41796875,0.0,0.0,0.0,-21.1875,-47.3125,9.5625,0.39624023,0.42059326,-0.58764648,-0.56634521,0.0,0.0,0.0,-0.32273865,0.0,9.61414756,0.0337677,0.0,0.0,0.0,0.0,0.0,0.0
S,No Message Received,180995.0,0.0,14.82250214,1029.18786621,-131.85636902,0.0703125,-9.5625,0.41796875,0.0,0.0,0.0,-21.6875,-48.4375,9.0,0.39624023,0.42059326,-0.58764648,-0.56634521,35.17577744,-76.82828522,-7.84100008,-0.32273865,0.0,9.57169808,0.0337677,0.0,0.0,0.0,0.0,0.0,0.0
S,No Message Received,181022.0,0.0,14.82250214,1029.18786621,-131.85636902,0.0703125,-9.5625,0.41796875,0.0,0.0,0.0,-21.6875,-48.4375,9.0,0.39630127,0.42059326,-0.58764648,-0.56634521,0.0,0.0,0.0,-0.32273865,0.0,9.57169808,0.0337677,0.0,0.0,0.0,0.0,0.0,0.0
S,No Message Received,181041.0,0.0,14.82250214,1029.18566895,-131.83848572,0.109375,-9.56640625,0.41796875,0.0,0.0,0.0,-21.6875,-48.4375,9.0,0.39630127,0.42053223,-0.58764648,-0.56634521,35.17577744,-76.82828522,-7.84800005,-0.30485535,0.0,9.57606629,0.0337677,0.0,0.0,0.0,0.0,0.0,0.0
S,No Message Received,181071.0,0.0,14.82250214,1029.18566895,-131.83848572,0.14453125,-9.56640625,0.37890625,0.0,0.0,0.0,-21.6875,-48.4375,9.0,0.39630127,0.42053223,-0.58764648,-0.56634521,0.0,0.0,0.0,-0.30485535,0.0,9.5746125,0.0337677,0.0,0.0,0.0,0.0,0.0,0.0
S,No Message Received,181091.0,0.0,14.82250214,1029.18566895,-131.83848572,0.14453125,-9.56640625,0.41796875,0.0,0.0,0.0,-21.6875,-48.4375,9.0,0.39630127,0.42053223,-0.58764648,-0.56634521,35.17578125,-76.82828522,-7.86499977,-0.30485535,0.0,9.57648635,0.0337677,0.0,0.0,0.0,0.0,0.0,0.0
S,No Message Received,181122.0,0.0,14.82250214,1029.18566895,-131.83848572,0.14453125,-9.56640625,0.41796875,0.0,0.0,0.0,-21.6875,-48.4375,9.0,0.39630127,0.42053223,-0.58764648,-0.56634521,0.0,0.0,0.0,-0.30485535,0.0,9.57648635,0.0337677,0.0,0.0,0.0,0.0,0.0,0.0
S,No Message Received,181141.0,0.0,14.82136536,1029.18566895,-131.83848572,0.14453125,-9.60546875,0.45703125,0.0,0.0,0.0,-21.6875,-48.4375,9.0,0.39630127,0.42053223,-0.58764648,-0.56634521,35.17578125,-76.82828522,-7.88000011,-0.30485535,0.0,9.61737494,0.0337677,0.0,0.0,0.0,0.0,0.0,0.0
S,No Message Received,181171.0,0.0,14.82136536,1029.18566895,-131.83848572,0.0703125,-9.5625,0.41796875,0.0,0.0,0.0,-21.6875,-48.4375,9.0,0.39630127,0.42053223,-0.58764648,-0.56640625,0.0,0.0,0.0,-0.30485535,0.0,9.57169808,0.0337677,0.0,0.0,0.0,0.0,0.0,0.0
S,No Message Received,181191.0,0.0,14.82136536,1029.18566895,-131.83848572,0.03125,-9.56640625,0.45703125,0.0,0.0,0.0,-21.6875,-48.4375,9.0,0.3963623,0.42053223,-0.58764648,-0.56640625,35.17578125,-76.82828522,-7.91499996,-0.30485535,0.0,9.57700668,0.0337677,0.0,0.0,0.0,0.0,0.0,0.0
S,No Message Received,181222.0,0.0,14.82136536,1029.18566895,-131.83848572,0.109375,-9.60546875,0.41796875,0.0,0.0,0.0,-21.6875,-48.4375,9.0,0.39630127,0.42053223,-0.58758545,-0.56640625,0.0,0.0,0.0,-0.30485535,0.0,9.61508103,0.0337677,0.0,0.0,0.0,0.0,0.0,0.0
S,No Message Received,181241.0,0.0,14.82136536,1029.18652344,-131.84544373,0.0703125,-9.5625,0.41796875,0.0,0.0,0.0,-21.6875,-48.4375,9.0,0.39630127,0.42053223,-0.58758545,-0.56640625,35.17578125,-76.82828522,-7.86600018,-0.31181335,0.0,9.57169808,0.0337677,0.0,0.0,0.0,0.0,0.0,0.0
S,No Message Received,181271.0,0.0,14.82136536,1029.18652344,-131.84544373,0.03125,-9.56640625,0.37890625,0.0,0.0,0.0,-21.6875,-48.4375,9.0,0.39630127,0.42053223,-0.58758545,-0.56640625,0.0,0.0,0.0,-0.31181335,0.0,9.57325897,0.0337677,0.0,0.0,0.0,0.0,0.0,0.0
S,No Message Received,181287.0,0.0,14.82136536,1029.18652344,-131.84544373,0.0703125,-9.6015625,0.41796875,0.0,0.0,0.0,-21.6875,-48.4375,9.0,0.39630127,0.42053223,-0.58758545,-0.56640625,35.17577744,-76.82827759,-7.69500017,-0.31181335,0.0,9.61071282,0.0337677,0.0,0.0,0.0,0.0,0.0,0.0
S,No Message Received,181311.0,0.0,14.82136536,1029.18652344,-131.84544373,0.109375,-9.56640625,0.45703125,0.0,0.0,0.0,-21.6875,-48.4375,9.0,0.3963623,0.42053223,-0.58758545,-0.56640625,0.0,0.0,0.0,-0.31181335,0.0,9.57794014,0.0337677,0.0,0.0,0.0,0.0,0.0,0.0
S,No Message Received,181338.0,0.0,14.82078552,1029.18652344,-131.84544373,0.0703125,-9.6015625,0.45703125,0.0,0.0,0.0,-22.4375,-46.8125,10.5,0.3963623,0.42053223,-0.58758545,-0.56640625,35.17577744,-76.82827759,-7.71600008,-0.31181335,0.0,9.61258668,0.0337677,0.0,0.0,0.0,0.0,0.0,0.0
S,No Message Received,181372.0,0.0,14.82078552,1029.18652344,-131.84544373,0.109375,-9.5234375,0.45703125,0.0,0.0,0.0,-22.4375,-46.8125,10.5,0.3963623,0.42047119,-0.58758545,-0.56640625,0.0,0.0,0.0,-0.31181335,0.0,9.53502393,0.0337677,0.0,0.0,0.0,0.0,0.0,0.0
S,No Message Received,181392.0,0.0,14.82078552,1029.18652344,-131.84544373,0.109375,-9.56640625,0.37890625,0.0,0.0,0.0,-22.4375,-46.8125,10.5,0.3963623,0.42047119,-0.58758545,-0.56640625,35.17577744,-76.82827759,-7.71000004,-0.31181335,0.0,9.57419244,0.0337677,0.0,0.0,0.0,0.0,0.0,0.0
S,No Message Received,181421.0,0.0,14.82078552,1029.18652344,-131.84544373,0.109375,-9.56640625,0.37890625,0.0,0.0,0.0,-22.25,-47.875,9.9375,0.3963623,0.42047119,-0.58758545,-0.56640625,0.0,0.0,0.0,-0.31181335,0.0,9.57419244,0.0337677,0.0,0.0,0.0,0.0,0.0,0.0
S,No Message Received,181443.0,0.0,14.82078552,1029.18469238,-131.83055115,0.14453125,-9.56640625,0.41796875,0.0,0.0,0.0,-22.25,-47.875,9.9375,0.3963623,0.42047119,-0.58758545,-0.56640625,35.17577744,-76.82827759,-7.64799976,-0.29692078,0.0,9.57648635,0.0337677,0.0,0.0,0.0,0.0,0.0,0.0
S,No Message Received,181472.0,0.0,14.82078552,1029.18469238,-131.83055115,0.18359375,-9.56640625,0.45703125,0.0,0.0,0.0,-22.25,-47.875,9.9375,0.3963623,0.42047119,-0.58758545,-0.56640625,0.0,0.0,0.0,-0.29692078,0.0,9.57882694,0.0337677,0.0,0.0,0.0,0.0,0.0,0.0
S,No Message Received,181492.0,0.0,14.82078552,1029.18469238,-131.83055115,0.14453125,-9.60546875,0.37890625,0.0,0.0,0.0,-21.1875,-48.25,10.75,0.3963623,0.42047119,-0.58758545,-0.56640625,35.17577744,-76.82827759,-7.63500023,-0.29692078,0.0,9.61362724,0.0337677,0.0,0.0,0.0,0.0,0.0,0.0
S,No Message Received,181523.0,0.0,14.82078552,1029.18469238,-131.83055115,0.0703125,-9.5625,0.41796875,0.0,0.0,0.0,-21.1875,-48.25,10.75,0.3963623,0.42047119,-0.58758545,-0.56640625,0.0,0.0,0.0,-0.29692078,0.0,9.57169808,0.0337677,0.0,0.0,0.0,0.0,0.0,0.0
S,No Message Received,181541.0,0.0,14.82421112,1029.18505859,-131.83352661,0.0703125,-9.5625,0.41796875,0.0,0.0,0.0,-21.1875,-48.25,10.75,0.3963623,0.42047119,-0.58758545,-0.56640625,35.17577744,-76.82827759,-7.59399986,-0.29989624,0.0,9.57169808,0.0337677,0.0,0.0,0.0,0.0,0.0,0.0
S,No Message Received,181572.0,0.0,14.82421112,1029.18505859,-131.83352661,0.109375,-9.56640625,0.45703125,0.0,0.0,0.0,-21.1875,-48.25,10.75,0.3963623,0.42047119,-0.58758545,-0.56640625,0.0,0.0,0.0,-0.29989624,0.0,9.57794014,0.0337677,0.0,0.0,0.0,0.0,0.0,0.0
S,No Message Received,181593.0,0.0,14.82421112,1029.18505859,-131.83352661,0.03125,-9.56640625,0.45703125,0.0,0.0,0.0,-21.1875,-48.25,10.75,0.3963623,0.42047119,-0.58758545,-0.56640625,35.17577744,-76.82827759,-7.57299995,-0.29989624,0.0,9.57700668,0.0337677,0.0,0.0,0.0,0.0,0.0,0.0
S,No Message Received,181622.0,0.0,14.82421112,1029.18505859,-131.83352661,0.109375,-9.56640625,0.45703125,0.0,0.0,0.0,-22.1875,-47.5,10.25,0.3963623,0.42047119,-0.58758545,-0.56640625,0.0,0.0,0.0,-0.29989624,0.0,9.57794014,0.0337677,0.0,0.0,0.0,0.0,0.0,0.0
S,No Message Received,181642.0,0.0,14.82421112,1029.18371582,-131.82260132,0.109375,-9.60546875,0.45703125,0.0,0.0,0.0,-22.1875,-47.5,10.25,0.3963623,0.42047119,-0.58758545,-0.56640625,35.17577744,-76.82827759,-7.60300016,-0.28897095,0.0,9.61695488,0.0337677,0.0,0.0,0.0,0.0,0.0,0.0
S,No Message Received,181671.0,0.0,14.82421112,1029.18371582,-131.82260132,0.0703125,-9.5625,0.41796875,0.0,0.0,0.0,-21.6875,-48.0,8.9375,0.3963623,0.42047119,-0.58758545,-0.56640625,0.0,0.0,0.0,-0.28897095,0.0,9.57169808,0.0337677,0.0,0.0,0.0,0.0,0.0,0.0
S,No Message Received,181693.0,0.0,14.82421112,1029.18371582,-131.82260132,0.0703125,-9.6015625,0.45703125,0.0,0.0,0.0,-21.6875,-48.0,8.9375,0.3963623,0.42047119,-0.58758545,-0.56640625,35.17577744,-76.82827759,-7.6880002,-0.28897095,0.0,9.61258668,0.0337677,0.0,0.0,0.0,0.0,0.0,0.0
S,No Message Received,181723.0,0.0,14.82421112,1029.18371582,-131.82260132,0.109375,-9.56640625,0.41796875,0.0,0.0,0.0,-21.6875,-48.0,8.9375,0.39642334,0.42047119,-0.58758545,-0.56640625,0.0,0.0,0.0,-0.28897095,0.0,9.57606629,0.0337677,0.0,0.0,0.0,0.0,0.0,0.0
S,No Message Received,181752.0,0.0,14.82221222,1029.18347168,-131.82061768,0.0703125,-9.5625,0.41796875,0.0,0.0,0.0,-21.6875,-48.0,8.9375,0.39642334,0.42041016,-0.58764648,-0.56640625,0.0,0.0,0.0,-0.2869873,0.0,9.57169808,0.0337677,0.0,0.0,0.0,0.0,0.0,0.0
S,No Message Received,181772.0,0.0,14.82221222,1029.18347168,-131.82061768,0.0703125,-9.5625,0.45703125,0.0,0.0,0.0,-21.6875,-48.0,8.9375,0.39642334,0.42041016,-0.58764648,-0.56640625,35.17577744,-76.82827759,-7.83799982,-0.2869873,0.0,9.57357194,0.0337677,0.0,0.0,0.0,0.0,0.0,0.0
S,No Message Received,181802.0,0.0,14.82221222,1029.18347168,-131.82061768,0.109375,-9.60546875,0.41796875,0.0,0.0,0.0,-21.6875,-48.0,8.9375,0.39642334,0.42041016,-0.58764648,-0.56640625,0.0,0.0,0.0,-0.2869873,0.0,9.61508103,0.0337677,0.0,0.0,0.0,0.0,0.0,0.0
S,No Message Received,181832.0,0.0,14.82221222,1029.18347168,-131.82061768,0.109375,-9.56640625,0.37890625,0.0,0.0,0.0,-21.6875,-48.0,8.9375,0.39642334,0.42041016,-0.58764648,-0.56640625,0.0,0.0,0.0,-0.2869873,0.0,9.57419244,0.0337677,0.0,0.0,0.0,0.0,0.0,0.0
S,No Message Received,181846.0,0.0,14.82221222,1029.18310547,-131.81764221,0.0703125,-9.5625,0.41796875,0.0,0.0,0.0,-20.9375,-48.5,10.125,0.39642334,0.42041016,-0.58764648,-0.56640625,35.17577744,-76.82827759,-7.86499977,-0.28401184,0.0,9.57169808,0.0337677,0.0,0.0,0.0,0.0,0.0,0.0
S,No Message Received,181893.0,0.0,14.82221222,1029.18310547,-131.81764221,0.03125,-9.60546875,0.41796875,0.0,0.0,0.0,-20.9375,-48.5,10.125,0.39642334,0.42041016,-0.58764648,-0.56640625,35.17577744,-76.82827759,-7.79199982,-0.28401184,0.0,9.61414756,0.0337677,0.0,0.0,0.0,0.0,0.0,0.0
S,No Message Received,181922.0,0.0,14.82221222,1029.18310547,-131.81764221,0.109375,-9.5234375,0.41796875,0.0,0.0,0.0,-20.9375,-48.5,10.125,0.39642334,0.42041016,-0.58764648,-0.56640625,0.0,0.0,0.0,-0.28401184,0.0,9.53315008,0.0337677,0.0,0.0,0.0,0.0,0.0,0.0
S,No Message Received,181942.0,0.0,14.82221222,1029.18310547,-131.81764221,0.109375,-9.60546875,0.45703125,0.0,0.0,0.0,-20.9375,-48.5,10.125,0.39642334,0.42041016,-0.58764648,-0.56640625,35.17577744,-76.82827759,-7.81899977,-0.28401184,0.0,9.61695488,0.0337677,0.0,0.0,0.0,0.0,0.0,0.0
S,No Message Received,181970.0,0.0,14.81907654,1029.18286133,-131.81564331,0.109375,-9.56640625,0.41796875,0.0,0.0,0.0,-20.9375,-48.5,10.125,0.39642334,0.42041016,-0.58764648,-0.56640625,0.0,0.0,0.0,-0.28201294,0.0,9.57606629,0.0337677,0.0,0.0,0.0,0.0,0.0,0.0
S,No Message Received,181991.0,0.0,14.81907654,1029.18286133,-131.81564331,0.0703125,-9.5625,0.37890625,0.0,0.0,0.0,-20.9375,-48.5,10.125,0.39642334,0.42041016,-0.58764648,-0.56640625,35.17577744,-76.82827759,-7.76300001,-0.28201294,0.0,9.56982423,0.0337677,0.0,0.0,0.0,0.0,0.0,0.0
S,No Message Received,182019.0,0.0,14.81907654,1029.18286133,-131.81564331,0.0703125,-9.52734375,0.37890625,0.0,0.0,0.0,-20.9375,-48.5,10.125,0.39642334,0.42034912,-0.58764648,-0.56640625,0.0,0.0,0.0,-0.28201294,0.0,9.53471097,0.0337677,0.0,0.0,0.0,0.0,0.0,0.0
S,No Message Received,182041.0,0.0,14.81907654,1029.18286133,-131.81564331,0.109375,-9.56640625,0.37890625,0.0,0.0,0.0,-20.9375,-48.5,10.125,0.39642334,0.42034912,-0.58764648,-0.56640625,35.17577362,-76.82827759,-7.62699986,-0.28201294,0.0,9.57419244,0.0337677,0.0,0.0,0.0,0.0,0.0,0.0
S,No Message Received,182069.0,0.0,14.81907654,1029.18322754,-131.81863403,0.0703125,-9.6015625,0.41796875,0.0,0.0,0.0,-20.9375,-48.5,10.125,0.39648438,0.42034912,-0.58764648,-0.56640625,0.0,0.0,0.0,-0.28500366,0.0,9.61071282,0.0337677,0.0,0.0,0.0,0.0,0.0,0.0
S,No Message Received,182092.0,0.0,14.81907654,1029.18322754,-131.81863403,0.0703125,-9.6015625,0.37890625,0.0,0.0,0.0,-20.9375,-48.5,10.125,0.39648438,0.42034912,-0.58764648,-0.56640625,35.17577362,-76.82827759,-7.61399984,-0.28500366,0.0,9.60883897,0.0337677,0.0,0.0,0.0,0.0,0.0,0.0
S,No Message Received,182120.0,0.0,14.81907654,1029.18322754,-131.81863403,0.109375,-9.60546875,0.45703125,0.0,0.0,0.0,-20.9375,-48.5,10.125,0.39648438,0.42034912,-0.58764648,-0.56640625,0.0,0.0,0.0,-0.28500366,0.0,9.61695488,0.0337677,0.0,0.0,0.0,0.0,0.0,0.0
S,No Message Received,182141.0,0.0,14.81907654,1029.18322754,-131.81863403,0.18359375,-9.56640625,0.41796875,0.0,0.0,0.0,0.0,0.0,-4e-08,0.39648438,0.42034912,-0.58764648,-0.56640625,35.17577362,-76.82827759,-7.59800005,-0.28500366,0.0,9.57695308,0.0337677,0.0,0.0,0.0,0.0,0.0,0.0
S,No Message Received,182169.0,0.0,14.82106781,1029.18347168,-131.82061768,0.18359375,-9.56640625,0.49609375,0.0,0.0,0.0,0.0,0.0,-4e-08,0.39648438,0.42034912,-0.58764648,-0.56634521,0.0,0.0,0.0,-0.2869873,0.0,9.58070079,0.0337677,0.0,0.0,0.0,0.0,0.0,0.0
S,No Message Received,182191.0,0.0,14.82106781,1029.18347168,-131.82061768,0.14453125,-9.56640625,0.37890625,0.0,0.0,0.0,0.0,0.0,-4e-08,0.39648438,0.42034912,-0.58764648,-0.56634521,35.17577362,-76.82826996,-7.62300014,-0.2869873,0.0,9.5746125,0.0337677,0.0,0.0,0.0,0.0,0.0,0.0
S,No Message Received,182220.0,0.0,14.82106781,1029.18347168,-131.82061768,0.14453125,-9.60546875,0.45703125,0.0,0.0,0.0,0.0,0.0,-4e-08,0.39648438,0.42034912,-0.58764648,-0.56634521,0.0,0.0,0.0,-0.2869873,0.0,9.61737494,0.0337677,0.0,0.0,0.0,0.0,0.0,0.0
S,No Message Received,182239.0,0.0,14.82106781,1029.18347168,-131.82061768,0.109375,-9.60546875,0.41796875,0.0,0.0,0.0,0.0,0.0,-4e-08,0.39648438,0.42034912,-0.58764648,-0.56634521,35.17577362,-76.82826996,-7.61399984,-0.2869873,0.0,9.61508103,0.0337677,0.0,0.0,0.0,0.0,0.0,0.0
S,No Message Received,182270.0,0.0,14.82106781,1029.18603516,-131.84146118,0.03125,-9.56640625,0.41796875,0.0,0.0,0.0,0.0,0.0,-4e-08,0.39648438,0.42034912,-0.58764648,-0.56640625,0.0,0.0,0.0,-0.30783081,0.0,9.57513283,0.0337677,0.0,0.0,0.0,0.0,0.0,0.0
S,No Message Received,182288.0,0.0,14.82106781,1029.18603516,-131.84146118,0.0703125,-9.6015625,0.41796875,0.0,0.0,0.0,-21.6875,-46.375,10.8125,0.39648438,0.42034912,-0.58764648,-0.56640625,35.17577362,-76.82826996,-7.65199995,-0.30783081,0.0,9.61071282,0.0337677,0.0,0.0,0.0,0.0,0.0,0.0
S,No Message Received,182321.0,0.0,14.82106781,1029.18603516,-131.84146118,0.0703125,-9.5625,0.41796875,0.0,0.0,0.0,-21.6875,-46.375,10.8125,0.39642334,0.42034912,-0.58764648,-0.56640625,0.0,0.0,0.0,-0.30783081,0.0,9.57169808,0.0337677,0.0,0.0,0.0,0.0,0.0,0.0
S,No Message Received,182339.0,0.0,14.82106781,1029.18603516,-131.84146118,0.0703125,-9.52734375,0.41796875,0.0,0.0,0.0,-21.6875,-46.375,10.8125,0.39642334,0.42041016,-0.58764648,-0.56640625,35.17577362,-76.82826996,-7.69099998,-0.30783081,0.0,9.53658482,0.0337677,0.0,0.0,0.0,0.0,0.0,0.0
S,No Message Received,182370.0,0.0,14.82106781,1029.18603516,-131.84146118,0.0703125,-9.6015625,0.41796875,0.0,0.0,0.0,-21.6875,-46.375,10.8125,0.39642334,0.42041016,-0.58764648,-0.56640625,0.0,0.0,0.0,-0.30783081,0.0,9.61071282,0.0337677,0.0,0.0,0.0,0.0,0.0,0.0
S,No Message Received,182396.0,0.0,14.82221222,1029.18615723,-131.84246826,0.109375,-9.56640625,0.49609375,0.0,0.0,0.0,-21.6875,-46.375,10.8125,0.39642334,0.42041016,-0.58764648,-0.56640625,35.17577362,-76.82826996,-7.7249999,-0.30883789,0.0,9.579814,0.0337677,0.0,0.0,0.0,0.0,0.0,0.0
S,No Message Received,182429.0,0.0,14.82221222,1029.18615723,-131.84246826,0.0703125,-9.5625,0.45703125,0.0,0.0,0.0,-21.6875,-46.375,10.8125,0.39642334,0.42041016,-0.58764648,-0.56640625,0.0,0.0,0.0,-0.30883789,0.0,9.57357194,0.0337677,0.0,0.0,0.0,0.0,0.0,0.0
S,No Message Received,182443.0,0.0,14.82221222,1029.18615723,-131.84246826,0.0703125,-9.5625,0.49609375,0.0,0.0,0.0,-22.5625,-47.5625,10.1875,0.39642334,0.42041016,-0.58764648,-0.56640625,35.17577362,-76.82826996,-7.79300022,-0.30883789,0.0,9.57544579,0.0337677,0.0,0.0,0.0,0.0,0.0,0.0
S,No Message Received,182476.0,0.0,14.82221222,1029.18664551,-131.84643555,0.109375,-9.56640625,0.45703125,0.0,0.0,0.0,-20.875,-48.1875,10.8125,0.39642334,0.42041016,-0.58764648,-0.56640625,0.0,0.0,0.0,-0.31280518,0.0,9.57794014,0.0337677,0.0,0.0,0.0,0.0,0.0,0.0
S,No Message Received,182494.0,0.0,14.82221222,1029.18664551,-131.84643555,0.109375,-9.60546875,0.37890625,0.0,0.0,0.0,-20.875,-48.1875,10.8125,0.39642334,0.42041016,-0.58764648,-0.56640625,35.17577362,-76.82826996,-7.85300016,-0.31280518,0.0,9.61320718,0.0337677,0.0,0.0,0.0,0.0,0.0,0.0
S,No Message Received,182522.0,0.0,14.82221222,1029.18664551,-131.84643555,0.14453125,-9.56640625,0.37890625,0.0,0.0,0.0,-21.8125,-47.5625,11.0,0.39642334,0.42041016,-0.58764648,-0.56640625,0.0,0.0,0.0,-0.31280518,0.0,9.5746125,0.0337677,0.0,0.0,0.0,0.0,0.0,0.0
S,No Message Received,182555.0,0.0,14.82221222,1029.18664551,-131.84643555,0.109375,-9.56640625,0.41796875,0.0,0.0,0.0,-22.0625,-48.0,8.5625,0.39642334,0.42041016,-0.58764648,-0.56640625,35.17577362,-76.82826996,-7.82800007,-0.31280518,0.0,9.57606629,0.0337677,0.0,0.0,0.0,0.0,0.0,0.0
S,No Message Received,182590.0,0.0,14.82136536,1029.18652344,-131.84544373,0.109375,-9.60546875,0.41796875,0.0,0.0,0.0,-22.0625,-48.0,8.5625,0.3963623,0.42041016,-0.58764648,-0.56640625,35.17577362,-76.82826996,-7.8119998,-0.31181335,0.0,9.61508103,0.0337677,0.0,0.0,0.0,0.0,0.0,0.0
S,No Message Received,182620.0,0.0,14.82136536,1029.18652344,-131.84544373,0.109375,-9.56640625,0.37890625,0.0,0.0,0.0,-20.3125,-48.4375,10.1875,0.3963623,0.42047119,-0.58764648,-0.56640625,0.0,0.0,0.0,-0.31181335,0.0,9.57419244,0.0337677,0.0,0.0,0.0,0.0,0.0,0.0
S,No Message Received,182640.0,0.0,14.82136536,1029.18652344,-131.84544373,0.109375,-9.56640625,0.41796875,0.0,0.0,0.0,-20.3125,-48.4375,10.1875,0.3963623,0.42047119,-0.58764648,-0.56640625,35.17577362,-76.82826996,-7.83500004,-0.31181335,0.0,9.57606629,0.0337677,0.0,0.0,0.0,0.0,0.0,0.0
S,No Message Received,182674.0,0.0,14.82136536,1029.18652344,-131.84544373,0.109375,-9.56640625,0.41796875,0.0,0.0,0.0,-20.3125,-48.4375,10.1875,0.3963623,0.42047119,-0.58764648,-0.56640625,0.0,0.0,0.0,-0.31181335,0.0,9.57606629,0.0337677,0.0,0.0,0.0,0.0,0.0,0.0
S,No Message Received,182694.0,0.0,14.82136536,1029.18481445,-131.83154297,0.109375,-9.56640625,0.45703125,0.0,0.0,0.0,-21.8125,-46.5625,9.4375,0.3963623,0.42047119,-0.58764648,-0.56640625,35.17577362,-76.82826233,-7.7249999,-0.2979126,0.0,9.57794014,0.0337677,0.0,0.0,0.0,0.0,0.0,0.0
S,No Message Received,182731.0,0.0,14.82136536,1029.18481445,-131.83154297,0.109375,-9.56640625,0.49609375,0.0,0.0,0.0,-21.8125,-46.5625,9.4375,0.3963623,0.42047119,-0.58764648,-0.56640625,0.0,0.0,0.0,-0.2979126,0.0,9.579814,0.0337677,0.0,0.0,0.0,0.0,0.0,0.0
S,No Message Received,182760.0,0.0,14.82136536,1029.18481445,-131.83154297,0.14453125,-9.60546875,0.49609375,0.0,0.0,0.0,-21.8125,-46.5625,9.4375,0.3963623,0.42047119,-0.58764648,-0.56640625,0.0,0.0,0.0,-0.2979126,0.0,9.61924879,0.0337677,0.0,0.0,0.0,0.0,0.0,0.0
S,No Message Received,182772.0,0.0,14.82421112,1029.18505859,-131.83352661,0.03125,-9.56640625,0.41796875,0.0,0.0,0.0,-21.375,-48.875,9.4375,0.3963623,0.42047119,-0.58764648,-0.56634521,35.17576981,-76.82826233,-7.68400002,-0.29989624,0.0,9.57513283,0.0337677,0.0,0.0,0.0,0.0,0.0,0.0
S,No Message Received,182830.0,0.0,14.82421112,1029.18505859,-131.83352661,0.0703125,-9.5625,0.37890625,0.0,0.0,0.0,-22.0625,-49.4375,10.125,0.3963623,0.42053223,-0.58764648,-0.56634521,0.0,0.0,0.0,-0.29989624,0.0,9.56982423,0.0337677,0.0,0.0,0.0,0.0,0.0,0.0
S,No Message Received,182844.0,0.0,14.82421112,1029.18505859,-131.83352661,0.109375,-9.56640625,0.41796875,0.0,0.0,0.0,-21.3125,-48.4375,9.375,0.39630127,0.42053223,-0.58764648,-0.56634521,35.17576981,-76.82826233,-7.65799999,-0.29989624,0.0,9.57606629,0.0337677,0.0,0.0,0.0,0.0,0.0,0.0
S,No Message Received,182879.0,0.0,14.82421112,1029.18505859,-131.83352661,0.109375,-9.56640625,0.41796875,0.0,0.0,0.0,-21.3125,-48.4375,9.375,0.39630127,0.42053223,-0.58764648,-0.56634521,0.0,0.0,0.0,-0.29989624,0.0,9.57606629,0.0337677,0.0,0.0,0.0,0.0,0.0,0.0
S,No Message Received,182894.0,0.0,14.82421112,1029.18676758,-131.84742737,0.14453125,-9.60546875,0.45703125,0.0,0.0,0.0,-21.3125,-48.4375,9.375,0.39630127,0.42053223,-0.58764648,-0.56634521,35.17576981,-76.82826233,-7.76399994,-0.313797,0.0,9.61737494,0.0337677,0.0,0.0,0.0,0.0,0.0,0.0
S,No Message Received,182944.0,0.0,14.82421112,1029.18676758,-131.84742737,0.109375,-9.60546875,0.45703125,0.0,0.0,0.0,-21.3125,-48.4375,9.375,0.39630127,0.42053223,-0.58764648,-0.56634521,35.17576981,-76.82826233,-7.73699999,-0.313797,0.0,9.61695488,0.0337677,0.0,0.0,0.0,0.0,0.0,0.0
S,No Message Received,182980.0,0.0,14.82421112,1029.18676758,-131.84742737,0.0703125,-9.5625,0.45703125,0.0,0.0,0.0,-21.3125,-48.4375,9.375,0.39630127,0.42053223,-0.58764648,-0.56634521,0.0,0.0,0.0,-0.313797,0.0,9.57357194,0.0337677,0.0,0.0,0.0,0.0,0.0,0.0
S,No Message Received,182993.0,0.0,14.82449341,1029.18688965,-131.84841919,0.0703125,-9.5625,0.45703125,0.0,0.0,0.0,-22.3125,-48.1875,9.625,0.39630127,0.42053223,-0.58764648,-0.56634521,35.17576981,-76.82826233,-7.75299978,-0.31478882,0.0,9.57357194,0.0337677,0.0,0.0,0.0,0.0,0.0,0.0
S,No Message Received,183019.0,0.0,14.82449341,1029.18688965,-131.84841919,0.0703125,-9.5625,0.45703125,0.0,0.0,0.0,-22.3125,-48.1875,9.625,0.39630127,0.42053223,-0.58764648,-0.56634521,0.0,0.0,0.0,-0.31478882,0.0,9.57357194,0.0337677,0.0,0.0,0.0,0.0,0.0,0.0
S,No Message Received,183040.0,0.0,14.82449341,1029.18688965,-131.84841919,0.14453125,-9.60546875,0.45703125,0.0,0.0,0.0,-22.3125,-48.1875,9.625,0.39630127,0.42053223,-0.58764648,-0.56634521,35.17576981,-76.8282547,-7.72300005,-0.31478882,0.0,9.61737494,0.0337677,0.0,0.0,0.0,0.0,0.0,0.0
S,No Message Received,183071.0,0.0,14.82449341,1029.18688965,-131.84841919,0.109375,-9.5234375,0.45703125,0.0,0.0,0.0,-22.3125,-48.1875,9.625,0.39630127,0.42053223,-0.58764648,-0.56634521,0.0,0.0,0.0,-0.31478882,0.0,9.53502393,0.0337677,0.0,0.0,0.0,0.0,0.0,0.0
S,No Message Received,183090.0,0.0,14.82449341,1029.1842041,-131.8265686,0.109375,-9.56640625,0.37890625,0.0,0.0,0.0,-22.3125,-48.1875,9.625,0.39630127,0.42053223,-0.58764648,-0.56634521,35.17576981,-76.82826233,-7.7420001,-0.29293823,0.0,9.57419244,0.0337677,0.0,0.0,0.0,0.0,0.0,0.0
S,No Message Received,183119.0,0.0,14.82449341,1029.1842041,-131.8265686,0.0703125,-9.52734375,0.37890625,0.0,0.0,0.0,-22.3125,-48.1875,9.625,0.39630127,0.42053223,-0.58764648,-0.56634521,0.0,0.0,0.0,-0.29293823,0.0,9.53471097,0.0337677,0.0,0.0,0.0,0.0,0.0,0.0
S,No Message Received,183139.0,0.0,14.82449341,1029.1842041,-131.8265686,0.109375,-9.60546875,0.41796875,0.0,0.0,0.0,-21.0,-46.25,10.5,0.39630127,0.42053223,-0.58764648,-0.56634521,35.17576981,-76.82826233,-7.77600002,-0.29293823,0.0,9.61508103,0.0337677,0.0,0.0,0.0,0.0,0.0,0.0
S,No Message Received,183169.0,0.0,14.82449341,1029.1842041,-131.8265686,0.109375,-9.5234375,0.45703125,0.0,0.0,0.0,-22.1875,-46.5625,9.4375,0.39630127,0.42053223,-0.58764648,-0.56634521,0.0,0.0,0.0,-0.29293823,0.0,9.53502393,0.0337677,0.0,0.0,0.0,0.0,0.0,0.0
S,No Message Received,183195.0,0.0,14.82449341,1029.1842041,-131.8265686,0.14453125,-9.60546875,0.41796875,0.0,0.0,0.0,-21.9375,-48.3125,10.375,0.39630127,0.42047119,-0.58764648,-0.56640625,35.17576981,-76.82826233,-7.80499983,-0.29293823,0.0,9.61550109,0.0337677,0.0,0.0,0.0,0.0,0.0,0.0
S,No Message Received,183241.0,0.0,14.82963562,1029.18481445,-131.83154297,0.0703125,-9.6015625,0.37890625,0.0,0.0,0.0,-21.9375,-48.3125,10.375,0.39630127,0.42047119,-0.58764648,-0.56640625,35.17576981,-76.82826233,-7.87599993,-0.2979126,0.0,9.60883897,0.0337677,0.0,0.0,0.0,0.0,0.0,0.0
S,No Message Received,183271.0,0.0,14.82963562,1029.18481445,-131.83154297,0.14453125,-9.56640625,0.41796875,0.0,0.0,0.0,-21.9375,-48.3125,10.375,0.39630127,0.42047119,-0.58764648,-0.56640625,0.0,0.0,0.0,-0.2979126,0.0,9.57648635,0.0337677,0.0,0.0,0.0,0.0,0.0,0.0
S,No Message Received,183295.0,0.0,14.82963562,1029.18347168,-131.82061768,0.14453125,-9.56640625,0.41796875,0.0,0.0,0.0,-21.9375,-48.3125,10.375,0.39630127,0.42047119,-0.58764648,-0.56640625,35.17576981,-76.82826233,-7.93100023,-0.2869873,0.0,9.57648635,0.0337677,0.0,0.0,0.0,0.0,0.0,0.0
S,No Message Received,183328.0,0.0,14.82963562,1029.18347168,-131.82061768,0.109375,-9.56640625,0.45703125,0.0,0.0,0.0,-21.125,-47.4375,10.6875,0.39630127,0.42047119,-0.58764648,-0.56640625,0.0,0.0,0.0,-0.2869873,0.0,9.57794014,0.0337677,0.0,0.0,0.0,0.0,0.0,0.0
S,No Message Received,183343.0,0.0,14.82963562,1029.18347168,-131.82061768,0.0703125,-9.5625,0.37890625,0.0,0.0,0.0,-21.125,-47.4375,10.6875,0.39630127,0.42047119,-0.58764648,-0.56640625,35.17576981,-76.82826233,-8.05599976,-0.2869873,0.0,9.56982423,0.0337677,0.0,0.0,0.0,0.0,0.0,0.0
S,No Message Received,183368.0,0.0,14.82963562,1029.18347168,-131.82061768,0.0703125,-9.5625,0.41796875,0.0,0.0,0.0,-21.125,-47.4375,10.6875,0.39630127,0.42047119,-0.58764648,-0.56646729,0.0,0.0,0.0,-0.2869873,0.0,9.57169808,0.0337677,0.0,0.0,0.0,0.0,0.0,0.0
S,No Message Received,183395.0,0.0,14.82963562,1029.18347168,-131.82061768,0.109375,-9.56640625,0.41796875,0.0,0.0,0.0,-22.625,-48.8125,11.0625,0.39630127,0.42047119,-0.58764648,-0.56646729,35.17576981,-76.8282547,-8.10099983,-0.2869873,0.0,9.57606629,0.0337677,0.0,0.0,0.0,0.0,0.0,0.0
S,No Message Received,183428.0,0.0,14.83591461,1029.18408203,-131.82557678,0.109375,-9.5234375,0.34375,0.0,0.0,0.0,-21.8125,-47.5625,10.625,0.39630127,0.42047119,-0.58764648,-0.56646729,0.0,0.0,0.0,-0.29194641,0.0,9.52958976,0.0337677,0.0,0.0,0.0,0.0,0.0,0.0
S,No Message Received,183456.0,0.0,14.83591461,1029.18408203,-131.82557678,0.109375,-9.60546875,0.45703125,0.0,0.0,0.0,-21.9375,-47.8125,9.5625,0.39630127,0.42047119,-0.58764648,-0.56646729,35.17576981,-76.8282547,-8.14700031,-0.29194641,0.0,9.61695488,0.0337677,0.0,0.0,0.0,0.0,0.0,0.0
S,No Message Received,183490.0,0.0,14.83591461,1029.18408203,-131.82557678,0.109375,-9.640625,0.45703125,0.0,0.0,0.0,-21.9375,-47.8125,9.5625,0.39630127,0.42047119,-0.58764648,-0.56646729,35.17576981,-76.8282547,-8.03899956,-0.29194641,0.0,9.65206815,0.0337677,0.0,0.0,0.0,0.0,0.0,0.0
S,No Message Received,183519.0,0.0,14.83591461,1029.1854248,-131.83650208,-0.27734375,-5.8046875,0.15234375,0.0,0.0,0.0,-21.9375,-47.8125,9.5625,0.39630127,0.42047119,-0.58764648,-0.56646729,0.0,0.0,0.0,-0.3028717,-0.11589606,5.80158422,0.0337677,0.0,0.0,0.0,0.0,0.0,0.0
S,No Message Received,183540.0,0.0,14.83591461,1029.1854248,-131.83650208,-0.54296875,-9.0625,0.265625,-0.00976562,-0.015625,0.00195312,-21.9375,-47.8125,9.5625,0.39630127,0.42041016,-0.58764648,-0.56646729,35.17576981,-76.8282547,-8.00300026,-0.3028717,-0.13144182,9.05772538,0.0337677,0.0,0.0,0.0,0.0,0.0,0.0
S,No Message Received,183570.0,0.0,14.83591461,1029.1854248,-131.83650208,-0.27734375,-9.72265625,0.2265625,-0.00390625,-0.0078125,0.00976562,-22.1875,-46.5625,9.0625,0.39624023,0.42041016,-0.58764648,-0.56652832,0.0,0.0,0.0,-0.3028717,-0.13144182,9.71852144,0.0337677,0.0,0.0,0.0,0.0,0.0,0.0
S,No Message Received,183595.0,0.0,14.83591461,1029.1854248,-131.83650208,0.03125,-9.40625,0.37890625,0.00390625,0.00585938,-0.00195312,-22.1875,-46.5625,9.0625,0.39624023,0.42034912,-0.58764648,-0.56652832,35.17576981,-76.8282547,-8.05000019,-0.3028717,-0.13144182,9.41333621,0.0337677,0.0,0.0,0.0,0.0,0.0,0.0
S,No Message Received,183627.0,0.0,14.83991241,1029.18579102,-131.83947754,-0.12109375,-9.68359375,0.265625,-0.015625,-0.01171875,0.0,-22.1875,-46.5625,9.0625,0.39611816,0.42034912,-0.58770752,-0.56652832,0.0,0.0,0.0,-0.30584717,-0.13144182,9.68325062,0.0337677,0.0,0.0,0.0,0.0,0.0,0.0
S,No Message Received,183642.0,0.0,14.83991241,1029.18579102,-131.83947754,-0.0859375,-9.56640625,0.41796875,0.01171875,0.015625,0.00195312,-21.5,-47.0,9.875,0.39611816,0.42034912,-0.58770752,-0.56658936,35.17576981,-76.8282547,-7.94399977,-0.30584717,-0.13144182,9.57381138,0.0337677,0.0,0.0,0.0,0.0,0.0,0.0
S,No Message Received,183682.0,0.0,14.83991241,1029.18579102,-131.83947754,-0.0078125,-9.44921875,0.45703125,-0.00390625,-0.015625,0.00195312,-22.5,-47.6875,10.9375,0.3961792,0.42047119,-0.58764648,-0.56652832,0.0,0.0,0.0,-0.30584717,-0.13144182,9.45953106,0.0337677,0.0,0.0,0.0,0.0,0.0,0.0
S,No Message Received,183712.0,0.0,14.83991241,1029.18713379,-131.85040283,0.0703125,-9.52734375,0.45703125,0.00195312,0.00195312,0.00195312,-22.3125,-47.8125,9.5625,0.39611816,0.42034912,-0.58770752,-0.56652832,35.17576981,-76.8282547,-7.98099995,-0.31677246,-0.13144182,9.53847356,0.0337677,0.0,0.0,0.0,0.0,0.0,0.0
S,No Message Received,183754.0,0.0,14.83991241,1029.18713379,-131.85040283,-0.046875,-9.4453125,0.41796875,0.00195312,-0.01171875,0.0,-22.4375,-48.4375,8.5625,0.39611816,0.42034912,-0.58770752,-0.56652832,0.0,0.0,0.0,-0.31677246,-0.13144182,9.45333197,0.0337677,0.0,0.0,0.0,0.0,0.0,0.0
S,No Message Received,183775.0,0.0,14.83991241,1029.18713379,-131.85040283,0.0703125,-9.68359375,0.49609375,0.0,-0.00390625,0.0,-22.4375,-48.4375,8.5625,0.39605713,0.42034912,-0.58776855,-0.56652832,35.17576981,-76.8282547,-8.06299973,-0.31677246,-0.13144182,9.69638791,0.0337677,0.0,0.0,0.0,0.0,0.0,0.0
S,No Message Received,183808.0,0.0,14.83991241,1029.18713379,-131.85040283,0.03125,-9.75,0.34375,0.00195312,0.00585938,0.0,-22.875,-48.5,11.375,0.39605713,0.42034912,-0.58776855,-0.56658936,0.0,0.0,0.0,-0.31677246,-0.13144182,9.75503652,0.0337677,0.0,0.0,0.0,0.0,0.0,0.0
S,No Message Received,183843.0,0.0,14.8347702,1029.18652344,-131.84544373,-6.05859375,-48.14453125,-15.1328125,0.00195312,0.0,-0.015625,-22.625,-47.4375,9.125,0.39593506,0.42028809,-0.58782959,-0.56665039,35.17576599,-76.8282547,-8.15499973,-0.31181335,1.18092019,47.29405747,0.0337677,0.0,0.0,0.0,1.18092019,0.0,0.0
S,No Message Received,183881.0,0.0,14.8347702,1029.18652344,-131.84544373,4.93359375,-78.44140625,24.20703125,1.0234375,-0.72070312,-0.24023438,-22.625,-47.4375,9.125,0.39593506,0.42028809,-0.58782959,-0.56665039,0.0,0.0,0.0,-0.31181335,3.8608539,80.32257146,0.0337677,0.0,0.0,0.0,3.8608539,0.0,0.0
S,No Message Received,183895.0,0.0,14.8347702,1029.18652344,-131.84544373,6.390625,-78.44140625,15.85546875,-0.41796875,-1.36523438,0.05664062,-20.3125,-49.9375,12.125,0.38214111,0.42242432,-0.59576416,-0.56622314,35.17576599,-76.8282547,-8.17500019,-0.31181335,4.8378607,79.58420001,0.0337677,0.0,0.0,0.0,4.8378607,0.0,0.0
S,No Message Received,183929.0,0.0,14.8347702,1028.78588867,-128.55107117,8.3046875,-78.44140625,-2.1484375,0.203125,-0.97851562,-0.14257812,0.0,0.0,-4e-08,0.37860107,0.41796875,-0.59796143,-0.56964111,0.0,0.0,0.0,2.9825592,7.16326769,78.19232315,2.9825592,0.0,0.0,0.0,7.16326769,0.0,0.0
S,No Message Received,183943.0,0.0,14.8347702,1028.78588867,-128.55107117,-3.72265625,-78.4375,10.68359375,0.23046875,-1.60546875,-0.00976562,-20.9375,-51.0,13.3125,0.36346436,0.40258789,-0.60284424,-0.58514404,35.17576599,-76.8282547,-8.23099995,2.9825592,8.13075804,78.90445383,2.9825592,0.0,0.0,0.0,8.13075804,0.0,0.0
M,No Message Received,183979.0,0.0,14.8347702,1028.78588867,-128.55107117,7.234375,-78.44140625,9.4609375,0.08398438,-2.10742188,0.0390625,-20.625,-51.375,13.3125,0.34191895,0.38061523,-0.6161499,-0.59881592,0.0,0.0,0.0,2.9825592,10.62893121,79.19169915,2.9825592,0.0,0.0,0.0,10.62893121,0.0,0.0
M,No Message Received,183994.0,0.0,14.8347702,1028.78588867,-128.55107117,0.14453125,-78.4375,5.8984375,-0.0703125,-2.01757812,0.00390625,-19.6875,-49.5,15.0,0.33483887,0.37365723,-0.62030029,-0.60290527,35.17576599,-76.8282547,-8.25500011,2.9825592,11.66085222,78.59273414,2.9825592,0.0,0.0,0.0,11.66085222,0.0,0.0
M,No Message Received,184030.0,0.0,14.82763672,1028.78527832,-128.5460968,5.546875,-78.44140625,8.65625,0.0703125,-1.64453125,-0.15820312,-17.875,-49.4375,16.1875,0.30828857,0.34857178,-0.63391113,-0.61773682,0.0,0.0,0.0,2.98753357,14.15489181,79.07687732,2.98753357,0.0,0.0,0.0,14.15489181,0.0,0.0
M,No Message Received,184055.0,0.0,14.82763672,1028.78527832,-128.5460968,6.16015625,-78.4375,7.0078125,-0.05078125,-1.56054688,-0.18945312,-17.875,-49.4375,16.1875,0.30267334,0.34405518,-0.63647461,-0.62042236,35.17576599,-76.8282547,-8.26599979,2.98753357,15.88434521,78.97613616,2.98753357,0.0,0.0,0.0,15.88434521,0.0,0.0
M,No Message Received,184087.0,0.0,14.82763672,1028.78527832,-128.5460968,4.7421875,-78.4375,7.0859375,-0.08984375,-1.36914062,-0.23828125,-17.875,-49.4375,16.1875,0.29168701,0.33477783,-0.64056396,-0.62646484,0.0,0.0,0.0,2.98753357,18.09521864,78.88779451,2.98753357,0.0,0.0,0.0,18.09521864,0.0,0.0
M,No Message Received,184103.0,0.0,14.82763672,1028.78527832,-128.5460968,4.3984375,-78.4375,6.28125,-0.15234375,-1.29296875,-0.22070312,-17.875,-49.4375,16.1875,0.27111816,0.31896973,-0.64678955,-0.63745117,35.17576599,-76.8282547,-8.27900028,2.98753357,19.19913838,78.79298393,2.98753357,0.0,0.0,0.0,19.19913838,0.0,0.0
M,No Message Received,184134.0,0.0,14.82763672,1028.20556641,-123.77799225,4.4375,-78.44140625,6.5078125,-0.10742188,-1.21875,-0.2890625,-17.875,-49.4375,16.1875,0.25732422,0.30963135,-0.64904785,-0.64550781,0.0,0.0,0.0,7.75563812,21.33777408,78.78624834,7.75563812,0.0,0.0,0.0,21.33777408,0.0,0.0
M,No Message Received,184147.0,0.0,14.82763672,1028.20556641,-123.77799225,3.59375,-78.4375,6.31640625,-0.2109375,-0.875,-0.34179688,-17.875,-49.4375,16.1875,0.24975586,0.30511475,-0.64923096,-0.65039062,35.17576599,-76.8282547,-8.28100014,7.75563812,22.2331462,78.67277837,7.75563812,0.0,0.0,0.0,22.2331462,0.0,0.0
M,No Message Received,184179.0,0.0,14.82763672,1028.20556641,-123.77799225,3.5546875,-78.4375,6.6640625,-0.24609375,-0.60351562,-0.45898438,-17.875,-49.4375,16.1875,0.23986816,0.30084229,-0.64825439,-0.65710449,0.0,0.0,0.0,7.75563812,24.4348436,78.60104376,7.75563812,0.0,0.0,0.0,24.4348436,0.0,0.0
M,No Message Received,184193.0,0.0,14.82763672,1028.20556641,-123.77799225,2.4453125,-78.4375,7.23828125,-0.265625,-0.37304688,-0.51757812,-17.875,-49.4375,16.1875,0.23693848,0.30023193,-0.64733887,-0.65930176,35.17576599,-76.8282547,-8.27799988,7.75563812,25.39595702,78.44895886,7.75563812,0.0,0.0,0.0,25.39595702,0.0,0.0
M,No Message Received,184227.0,0.0,14.82763672,1028.20556641,-123.77799225,4.015625,-78.4375,6.43359375,-0.30078125,0.046875,-0.62109375,-17.875,-49.4375,16.1875,0.23431396,0.30004883,-0.64624023,-0.66143799,0.0,0.0,0.0,7.75563812,27.72969773,78.43743264,7.75563812,0.0,0.0,0.0,27.72969773,0.0,0.0
M,No Message Received,184243.0,0.0,14.83392334,1028.20617676,-123.78296661,2.75,-78.4375,5.8203125,-0.28515625,0.55273438,-0.6875,-12.625,-52.3125,18.0,0.22625732,0.30761719,-0.63720703,-0.66943359,35.17576599,-76.8282547,-8.27400017,7.75066376,28.82318719,78.14109108,7.75563812,0.0,0.0,0.0,28.82318719,0.0,0.0
M,No Message Received,184290.0,0.0,14.83392334,1028.20617676,-123.78296661,1.984375,-78.44140625,6.5859375,-0.23046875,1.22070312,-0.73046875,-12.625,-52.3125,18.0,0.22589111,0.31091309,-0.63470459,-0.67041016,35.17576599,-76.8282547,-8.26900005,7.75066376,32.01471176,77.70277812,7.75563812,0.0,0.0,0.0,32.01471176,0.0,0.0
M,No Message Received,184321.0,0.0,14.83392334,1028.20617676,-123.78296661,3.59375,-78.44140625,6.05078125,-0.16015625,2.16601562,-0.73046875,-11.875,-53.0,15.375,0.23657227,0.34802246,-0.61407471,-0.66766357,0.0,0.0,0.0,7.75066376,34.12184279,77.76996864,7.75563812,0.0,0.0,0.0,34.12184279,0.0,0.0
M,No Message Received,184342.0,0.0,14.83392334,1026.72021484,-111.55021667,3.671875,-78.4375,6.77734375,-0.12304688,2.421875,-0.70117188,-11.875,-53.0,15.375,0.24530029,0.36590576,-0.60552979,-0.66278076,35.17576599,-76.8282547,-8.26599979,19.9834137,35.54741303,77.68229713,19.9834137,0.0,0.0,0.0,35.54741303,0.0,0.0
M,No Message Received,184371.0,0.0,14.83392334,1026.72021484,-111.55021667,3.40234375,-78.4375,5.97265625,-0.05078125,3.40234375,-0.6015625,-11.9375,-52.9375,14.625,0.26422119,0.39904785,-0.58996582,-0.65032959,0.0,0.0,0.0,19.9834137,37.50939758,77.45263971,19.9834137,0.0,0.0,0.0,37.50939758,0.0,0.0
M,No Message Received,184396.0,0.0,14.83392334,1026.72021484,-111.55021667,3.01953125,-78.4375,6.69921875,-0.03320312,3.88085938,-0.50390625,-11.9375,-52.9375,14.625,0.27185059,0.41125488,-0.58416748,-0.64471436,35.17576599,-76.8282547,-8.26299953,19.9834137,39.19833449,77.35547662,19.9834137,0.0,0.0,0.0,39.19833449,0.0,0.0
M,No Message Received,184427.0,0.0,14.83392334,1026.72021484,-111.55021667,3.70703125,-78.44140625,6.96875,-0.05078125,4.5703125,-0.32421875,-12.9375,-54.6875,12.625,0.28942871,0.4375,-0.57141113,-0.63116455,0.0,0.0,0.0,19.9834137,41.29917826,77.56715366,19.9834137,0.0,0.0,0.0,41.29917826,0.0,0.0
M,No Message Received,184447.0,0.0,14.83877563,1026.7208252,-111.55519104,3.9765625,-78.4375,7.19921875,-0.10742188,5.05273438,-0.1875,-12.9375,-54.6875,12.625,0.32141113,0.48010254,-0.54882812,-0.60412598,35.17576599,-76.82826233,-8.26299953,19.97843933,42.65749445,77.71380952,19.9834137,0.0,0.0,0.0,42.65749445,0.0,0.0
M,No Message Received,184477.0,0.0,14.83877563,1026.7208252,-111.55519104,3.1328125,-78.44140625,6.1640625,-0.33789062,6.03320312,0.09765625,-13.625,-51.4375,8.625,0.38885498,0.55480957,-0.49914551,-0.54022217,0.0,0.0,0.0,19.97843933,44.6922695,77.62383522,19.9834137,0.0,0.0,0.0,44.6922695,0.0,0.0
M,No Message Received,184501.0,0.0,14.83877563,1026.7208252,-111.55519104,2.98046875,-78.4375,6.203125,-0.4140625,6.29296875,0.15820312,-13.625,-51.4375,8.625,0.40429688,0.56958008,-0.48693848,-0.52441406,35.17576599,-76.82826233,-8.26099968,19.97843933,46.32410129,77.7909912,19.9834137,0.0,0.0,0.0,46.32410129,0.0,0.0
M,No Message Received,184528.0,0.0,14.83877563,1026.7208252,-111.55519104,2.67578125,-78.44140625,5.359375,-0.65820312,7.06445312,0.26171875,-13.625,-51.4375,8.625,0.42059326,0.58447266,-0.47357178,-0.50714111,0.0,0.0,0.0,19.97843933,48.16160422,77.85366404,19.9834137,0.0,0.0,0.0,48.16160422,0.0,0.0
M,No Message Received,184541.0,0.0,14.83877563,1023.83117676,-87.72577667,4.015625,-78.44140625,5.28515625,-0.74414062,7.33984375,0.26171875,-15.625,-52.5,1.4375,0.49005127,0.64086914,-0.40887451,-0.42657471,35.17576599,-76.82826233,-8.25699997,43.8078537,49.0491217,78.06857496,43.8078537,0.0,0.0,0.0,49.0491217,0.0,0.0
M,No Message Received,184568.0,0.0,14.83877563,1023.83117676,-87.72577667,2.4453125,-78.44140625,4.40234375,-0.99804688,8.35742188,0.16992188,-15.1875,-51.5,-2.5625,0.54345703,0.67803955,-0.34680176,-0.35314941,0.0,0.0,0.0,43.8078537,50.89088495,78.01145395,43.8078537,0.0,0.0,0.0,50.89088495,0.0,0.0
M,No Message Received,184591.0,0.0,14.83877563,1023.83117676,-87.72577667,2.51953125,-78.4375,3.7890625,-1.046875,8.58007812,0.10351562,-14.0,-50.9375,-5.6875,0.57769775,0.69903564,-0.29797363,-0.29803467,35.17576599,-76.82826233,-8.25599957,43.8078537,52.46095418,78.06187951,43.8078537,0.0,0.0,0.0,52.46095418,0.0,0.0
M,No Message Received,184627.0,0.0,14.83877563,1023.83117676,-87.72577667,2.7109375,-78.44140625,2.91015625,-1.10742188,9.703125,-0.23828125,-10.5,-48.5,-11.0625,0.63708496,0.72845459,-0.18182373,-0.17419434,0.0,0.0,0.0,43.8078537,54.92087509,78.12913633,43.8078537,0.0,0.0,0.0,54.92087509,0.0,0.0
M,No Message Received,184651.0,0.0,14.83877563,1023.83117676,-87.72577667,2.8671875,-78.4375,3.17578125,-1.07226562,9.92578125,-0.31054688,-7.5625,-48.875,-11.875,0.65924072,0.73529053,-0.11578369,-0.10656738,35.17576599,-76.82826233,-8.25300026,43.8078537,56.56278171,78.21077576,43.8078537,0.0,0.0,0.0,56.56278171,0.0,0.0
M,No Message Received,184681.0,0.0,14.83877563,1023.83117676,-87.72577667,3.171875,-78.4375,2.83203125,-0.8203125,10.82421875,-0.45898438,-0.5625,-46.5,-14.125,0.67938232,0.73376465,-0.00787354,0.00134277,0.0,0.0,0.0,43.8078537,58.61492898,78.20290888,43.8078537,0.0,0.0,0.0,58.61492898,0.0,0.0
M,No Message Received,184701.0,0.0,14.83877563,1023.83117676,-87.72577667,2.94140625,-77.671875,3.17578125,-0.7578125,11.05078125,-0.46289062,1.0,-48.25,-14.4375,0.68225098,0.72375488,0.06866455,0.07720947,35.17576599,-76.82826233,-8.2510004,43.8078537,59.96808242,77.45567241,43.8078537,0.0,0.0,0.0,59.96808242,0.0,0.0
M,No Message Received,184734.0,0.0,14.83877563,1023.83117676,-87.72577667,4.359375,-74.80078125,3.3671875,-0.640625,11.9765625,-0.3515625,4.25,-46.4375,-13.75,0.6685791,0.69244385,0.18774414,0.19555664,0.0,0.0,0.0,43.8078537,62.10260138,74.48039267,43.8078537,0.0,0.0,0.0,62.10260138,0.0,0.0
M,No Message Received,184763.0,0.0,14.83877563,1021.51544189,-68.58943176,4.0546875,-72.34375,3.0625,-0.69726562,12.65039062,-0.2421875,13.8125,-47.25,-6.375,0.63165283,0.63879395,0.30609131,0.31494141,35.17576599,-76.82826233,-8.2510004,62.94419861,63.90640919,71.99826941,62.94419861,0.0,0.0,0.0,63.90640919,0.0,0.0
M,No Message Received,184794.0,0.0,14.83877563,1021.51544189,-68.58943176,3.48046875,-67.63671875,2.6015625,-0.81835938,13.21484375,-0.20703125,13.8125,-47.25,-6.375,0.6137085,0.61517334,0.34503174,0.3548584,35.17576599,-76.82826233,-8.25,62.94419861,65.68810203,67.27196242,62.94419861,0.0,0.0,0.0,65.68810203,0.0,0.0
M,No Message Received,184828.0,0.0,14.83877563,1021.51544189,-68.58943176,3.86328125,-64.95703125,2.83203125,-0.93945312,13.68164062,-0.30078125,13.8125,-47.25,-6.375,0.5435791,0.52722168,0.45489502,0.46868896,0.0,0.0,0.0,62.94419861,67.54966312,64.54979684,62.94419861,0.0,0.0,0.0,67.54966312,0.0,0.0
M,No Message Received,184841.0,0.0,14.84848022,1021.51647949,-68.59742737,2.94140625,-63.6875,2.06640625,-0.99023438,13.83398438,-0.34375,13.8125,-47.25,-6.375,0.45062256,0.41461182,0.54968262,0.5682373,35.17576599,-76.82826233,-8.2489996,62.936203,68.24462604,63.25668585,62.94419861,0.0,0.0,0.0,68.24462604,0.0,0.0
M,No Message Received,184866.0,0.0,14.84848022,1021.51647949,-68.59742737,2.67578125,-60.7421875,2.1796875,-1.015625,14.234375,-0.56445312,14.6875,-48.375,18.0,0.41448975,0.37127686,0.57739258,0.59747314,0.0,0.0,0.0,62.936203,69.50534395,60.22671654,62.94419861,0.0,0.0,0.0,69.50534395,0.0,0.0
M,No Message Received,184893.0,0.0,14.84848022,1021.51647949,-68.59742737,2.90234375,-60.89453125,2.06640625,-0.93945312,14.66601562,-0.79492188,8.6875,-50.9375,22.4375,0.20617676,0.12359619,0.67474365,0.69781494,35.17576981,-76.82826233,-8.2510004,62.936203,70.86963121,60.32715775,62.94419861,0.0,0.0,0.0,70.86963121,0.0,0.0
M,No Message Received,184927.0,0.0,14.84848022,1021.51647949,-68.59742737,4.3984375,-60.0859375,1.68359375,-0.78320312,15.1015625,-0.94921875,1.375,-52.0625,24.4375,0.16027832,0.06958008,0.68493652,0.70733643,0.0,0.0,0.0,62.936203,72.56606644,59.69315388,62.94419861,0.0,0.0,0.0,72.56606644,0.0,0.0
M,No Message Received,184942.0,0.0,14.84848022,1017.96966553,-39.2208519,4.58984375,-52.69921875,0.83984375,-0.65429688,15.40234375,-0.98046875,-3.75,-52.5,23.375,0.03417969,0.15600586,-0.69122314,-0.70477295,35.17576981,-76.82826233,-8.2510004,92.31277847,73.20482838,52.38212893,92.31277847,0.0,0.0,0.0,73.20482838,0.0,0.0
M,No Message Received,184978.0,0.0,14.84848022,1017.96966553,-39.2208519,3.44140625,-38.140625,1.33984375,-0.54296875,15.79296875,-0.9140625,-3.75,-52.5,23.375,0.08441162,0.2130127,-0.68334961,-0.69317627,0.0,0.0,0.0,92.31277847,74.21395586,37.82931889,92.31277847,0.0,0.0,0.0,74.21395586,0.0,0.0
M,No Message Received,184992.0,0.0,14.84848022,1017.96966553,-39.2208519,3.171875,-25.4609375,0.3046875,-0.5234375,16.02929688,-0.859375,-14.0625,-50.875,14.875,0.27960205,0.42712402,-0.61254883,-0.60345459,35.17576981,-76.82826233,-8.24699974,92.31277847,74.42955852,25.19819032,92.31277847,0.0,0.0,0.0,74.42955852,0.0,0.0
M,No Message Received,185028.0,0.0,14.84848022,1017.96966553,-39.2208519,2.328125,-15.3046875,0.83984375,-0.5,16.31054688,-0.80859375,-14.0625,-50.875,14.875,0.32629395,0.47607422,-0.5847168,-0.57006836,0.0,0.0,0.0,92.31277847,74.62219096,15.14890104,92.31277847,0.0,0.0,0.0,74.62219096,0.0,0.0
M,No Message Received,185041.0,0.0,14.84848022,1017.96966553,-39.2208519,2.13671875,-9.3671875,-0.4609375,-0.515625,16.3984375,-0.83984375,-14.0625,-50.875,14.875,0.49053955,0.63861084,-0.43719482,-0.4005127,35.17576981,-76.82826233,-8.24400043,92.31277847,74.61181659,8.99997136,92.31277847,0.0,0.0,0.0,74.62219096,0.0,0.0
M,No Message Received,185078.0,0.0,14.84790802,1017.96960449,-39.21985245,1.2578125,-4.3125,-1.61328125,-0.47851562,16.7890625,-0.98632812,-17.5625,-51.6875,1.875,0.60516357,0.73657227,-0.23883057,-0.18493652,0.0,0.0,0.0,92.31377792,74.39012509,3.80633803,92.31377792,0.0,0.0,0.0,74.62219096,0.0,0.0
M,No Message Received,185093.0,0.0,14.84790802,1017.96960449,-39.21985245,0.91015625,-0.41015625,-1.34375,-0.42578125,17.04492188,-1.06054688,-17.5625,-51.6875,1.875,0.6239624,0.74938965,-0.18273926,-0.12561035,35.17576981,-76.82826996,-8.23799992,92.31377792,74.24457118,0.09440603,92.31377792,0.0,0.0,0.0,74.62219096,0.0,0.0
M,No Message Received,185129.0,0.0,14.84790802,1017.96960449,-39.21985245,1.83203125,4.30859375,-1.19140625,-0.03515625,17.42773438,-1.16210938,-10.0,-48.3125,-9.3125,0.65100098,0.74804688,0.05352783,0.1171875,0.0,0.0,0.0,92.31377792,73.72658811,-4.59041876,92.31377792,0.0,0.0,0.0,74.62219096,0.0,0.0
M,No Message Received,185153.0,0.0,14.84790802,1014.88336182,-13.58952618,1.87109375,4.73046875,-1.0,-0.08203125,17.57617188,-1.09960938,7.375,-47.0,-7.375,0.63378906,0.71551514,0.17352295,0.23712158,35.17576981,-76.82826996,-8.23200035,117.94410419,73.37315178,-4.92851355,117.94410419,0.0,0.0,0.0,74.62219096,0.0,0.0
